business_id,name,state,latitude,longitude,stars,review_count,cluster
MTSW4McQd7CbVtyjqoe9mw,St Honore Pastries,PA,39.9555052,-75.1555641,4.0,80,0
CF33F8-E6oudUQ46HnavjQ,Sonic Drive-In,TN,36.269593,-87.058943,2.0,6,4
bBDDEgkFA1Otx9Lfe7BZUQ,Sonic Drive-In,TN,36.2081024,-86.7681696,1.5,10,1
eEOYSgkmpB90uNA7lDOMRA,Vietnamese Food Truck,FL,27.9552692,-82.4563199,4.0,10,3
il_Ro8jwPlHresjw9EGmBg,Denny's,IN,39.6371332838,-86.127217412,2.5,28,2
MUTTqe8uqyMdBl186RmNeA,Tuna Bar,PA,39.953949,-75.1432262,4.0,245,0
ROeacJQwBeh05Rqg7F6TCg,BAP,PA,39.943223,-75.162568,4.5,205,0
kfNv-JZpuN6TVNSO6hHdkw,Hibachi Express,IN,39.9043203184,-86.0530799,4.0,20,1
9OG5YkX1g2GReZM0AskizA,Romano's Macaroni Grill,NV,39.4761165,-119.7893392,2.5,339,0
sqSqqLy0sN8n2IZrAbzidQ,Domino's Pizza,TN,36.4647467622,-86.6591868908,3.5,8,2
kV_Q1oqis8Qli8dUoGpTyQ,Ardmore Pizza,PA,40.0067071,-75.289671,3.5,109,2
aPNXGTDkf-4bjhyMBQxqpQ,Craft Hall,PA,39.9625821,-75.1356571,3.5,65,0
ljxNT9p0y7YMPx0fcNBGig,Tony's Restaurant & 3rd Street Cafe,IL,38.896563,-90.1862032987,3.0,94,1
ABxoFuzZy5mqQ8C5FJJajQ,Core de Roma,PA,40.0283575,-75.2380841,5.0,12,0
seKihQKpGGnCeLuELRQPSQ,Twin Peaks,IN,39.9062952,-86.0474634,3.5,257,1
8rb-3VYXE37IZix4yOdskw,Sharky's Sports Bar & Grill,NJ,39.6968014,-74.9998214,2.5,29,1
aCDY7vXYMs54EbYuQScsnQ,39 North Taproom & Grill,PA,39.9036968861,-75.2949812448,4.5,25,2
pJfh3Ct8iL58NZa8ta-a5w,Top Shelf Sports Lounge,FL,28.1962523878,-82.3806153496,4.5,95,1
ppFCk9aQkM338Rgwpl2F5A,Wawa,PA,39.954573,-75.1948936,3.0,56,0
IDtLPgUrqorrpqSLdfMhZQ,Helena Avenue Bakery,CA,34.4144445,-119.6906718,4.0,389,2
YNjyv0gfOr2g8lbmUpTnKg,Copper Vine,LA,29.9506467229,-90.0744274301,4.5,350,0
LhpPSrulqVeTyJeK2xydvQ,Fresh Fruits & Salads,NJ,39.9466899,-75.123327,4.5,6,3
oaboaRBUgGjbo2kfUIKDLQ,Mike's Ice Cream,TN,36.1626492,-86.7759733,4.5,593,1
RK6-cJ9hj53RzOlCBmpT-g,Impasto,FL,27.890814,-82.5023464,5.0,5,3
knQ4vIgx-r85kjlWVVjcpQ,Silver and Blue Outfitters,NV,39.476518,-119.7840369,4.5,5,0
EuRGgOwJ0g1vTj2R04j37Q,Crafty Crab,IL,38.6012982,-89.9896835,2.5,14,4
TLZ3-eDPLhUzfsWO4ad6Ug,Mahony's Po-Boys & Seafood,LA,29.9554151,-90.0700619,4.0,382,0
Dy91wdWkwtI_qgjAIZ0Niw,Taqueria Los Primos,DE,39.7320886,-75.6256733,4.0,23,2
vje0KIiE7vtpx7JzmBx5LQ,The Pearl,FL,27.7694046,-82.767317,4.0,129,0
VrGxoSNZfSiT-G4OqRRGIw,Sunset 44 Bistro,MO,38.5832229,-90.4071872,4.0,73,2
VZzivJEbmHItOxNXJB3SpA,Subway,TN,36.0263631408,-86.7894728157,2.5,14,0
anLQj9AM8vjbcLSIE0iUgg,Papa Murphy's,AZ,32.3385723,-111.0107602,4.0,22,4
Cdytv_YhJO0W0Ab8t2xLtg,Nipper's Pub,NJ,39.8444681,-75.1248703,3.5,29,1
3BJxm-HnvzdwD1zjmSbmyQ,Golden Chopstick Chinese Restaurant,PA,39.963077709,-75.1680274529,3.0,137,0
9C2rpb56aQvW0ViZHK9sPw,Home Plate Sports Pub,AZ,32.206315,-110.887843,3.5,56,1
SZU9c8V2GuREDN5KgyHFJw,Santa Barbara Shellfish Company,CA,34.4087147,-119.6850187,4.0,2404,2
aNtKyc2rr-uK5cqzY9TVQQ,Chipotle Mexican Grill,FL,27.894167,-82.779866,3.0,19,5
X_E7U2lVNEwbH_gpOBmAHQ,Cerveza Jack's,TN,36.162799,-86.776016,4.0,182,1
G4lRmwDHdvhZAhmtlsYYBw,Wendy's,TN,36.112075744,-86.7674462724,1.5,37,1
BxhkoR6cscJwwex8gx31OA,Bar-B-Cutie,TN,36.296536,-86.700179,3.5,40,2
Ms5xG8i4p80KSMcF3tt4ug,Sal DeForte's Ristorante,NJ,40.2668877,-74.8056572,4.0,52,0
ORL4JE6tz3rJxVqkdKfegA,Gaylord Opryland Resort & Convention Center,TN,36.2115923083,-86.6943191727,3.0,1639,5
QjV4v7q_pt7tt3K1US7IHg,PDQ Temple Terrace,FL,28.0548882706,-82.3995484,3.0,5,3
59jkCUm4yHciKL1KW_1HJA,Roma Pizza & Italian Eatery,PA,40.2295269733,-75.1310898382,2.5,25,5
yM8LlTInbQH4FwWC97lz6w,McDonald's,MO,38.6124951839,-90.2219420671,1.5,100,5
CtMEJxpVMlNzFpB4PtFjfA,Aussie Grill,FL,28.192191035,-82.396367,4.0,75,1
O1oZpbZNDMH_gz8DhsZCdA,Wendy's,PA,40.012141,-75.1150148,1.5,15,0
vPcfJ3rm3NpdqVDod2WxLA,China Pearl,PA,40.2177843,-74.9265858,1.5,27,3
pmuuoDqNZp7518AUd-YmPA,Bagelicious - King Of Prussia,PA,40.1124813,-75.3799748,3.5,60,2
tSFXJ0GFl5iUdy021YgWLw,The Mad Griddle ,IN,39.781126,-86.1241235,5.0,7,5
ZU6NodDOWaabGkeNpOWdXw,530 Pub & Grill,FL,27.9657471097,-82.7989008,4.5,6,5
Dtuf4vD0znzwJW9vk3iTNw,Tomo Japanese Steakhouse and Sushi Bar,IN,39.8887246,-86.1212129,4.0,246,1
Ucl9Vo5lwrUmYbV8Dv8X5g,O'Briens Irish Pub,FL,28.09236,-82.500588,4.0,108,3
6BF3eaIzHtoNHSxKTFnTyg,Mister B's Cigar Box,IN,39.7627741475,-86.3793863588,3.5,13,0
Y6heWJJ9AmEL58fZwgi9YQ,Rosati's Pizza,AZ,32.3387235226,-111.0303098651,4.0,58,4
bTve2mwLk5Zc01vRKqc2KQ,Red Hook Coffee & Tea,PA,39.9385518,-75.1496356,4.5,183,0
uDQgmudYDKiB6n4vwbEeDg,Chrysalis,TN,35.9565328581,-86.8027199385,4.5,112,0
VVvUBlc_WIEb8obKGq39dA,Four Green Fields,FL,27.9803985924,-82.5377866183,4.5,39,3
py5aKmlTB2NarfsfcOpHOQ,Cafe Con Leche,FL,27.9767745,-82.5374233,2.5,55,3
wZhGuW7vQpfhxeEvLHkTrA,Express Cafe,ID,43.6196488,-116.3871392,4.5,119,1
YR0nwxBOKk6DiLHNItfsBQ,Boston Pizza,AB,53.625071,-113.6166452,3.5,14,2
n8ecak12IF_jhnPNs37AZA,Baltic Bakery,PA,39.9768798,-75.1161695,4.5,12,0
_T0cPZE2ZJOTTlYYKMP64Q,Brown Sugar Bakery & Cafe,PA,39.9563959,-75.2253784,4.5,66,0
1dSKEitDDgIkaApe6UNMSA,The Pepper Pott,TN,36.1530043,-86.8433279,5.0,18,1
rZw9O5lJ36m_mXeRKE4G9A,La Sponda,PA,40.0062075104,-75.7044510304,4.5,29,4
Pr_Mlt9FqdcW7WCFGJmozA,The Cider Factory,NV,39.305224,-119.652596,4.5,104,4
e8pMCk4bE0U4qk7z59Lxkg,Federal Donuts,PA,39.963042,-75.1741858944,4.5,11,0
zVlhs7BVaouutt-rles-YA,Williams Sub Shop,FL,27.806517,-82.749065,4.5,99,0
1E9o1SNo7UTf1XHTFPv1_Q,Franklin Juice Co,TN,35.9326054453,-86.860662065,4.5,66,0
f82dhKNiUXsDVPMLqKYiIQ,Sher-e-Punjab,AZ,32.2509598946,-110.9591583204,4.0,446,2
FF45pKN_lzqG8Bqk-_HQvw,Go! Gyro! Go!,MO,38.5844866,-90.266699,4.5,49,5
bDAlJYMIzwOewIThe2IZjQ,Domino's Pizza,IN,39.699929,-86.2416313,4.0,12,5
SRexiuEsx1d9-dZVUsssQA,Brandon Burgers,FL,27.9373704213,-82.3077001423,3.5,24,2
xJyp6RLqNRv3tSu6njPKxQ,World of Beer,PA,40.0236651,-75.6291878,3.0,208,4
1P_mGUY1PyPq7_ZabrzpBw,Carmine's Steakhouse,MO,38.6243584,-90.1886849,4.0,261,5
XwoXi0M66RU6Gouq-DSDHw,G Peppers Grill & Tavern,FL,28.0921362,-82.5785736,4.0,82,3
0DbIUh_Xuj6H5B_SF0RLCQ,Iguana's Mexican Restaurant,IN,39.8518617214,-86.3847577572,4.0,74,0
bSJczuohHVko33UT82hnfA,Blaze Pizza,LA,29.948395,-90.075281,4.0,302,0
rmHgqdVkLsGN2byesWRo0w,Brewster's Pub,NJ,39.9394973,-74.9743023,3.5,12,3
JfGfqCnk0-Tnf6PlahPUJQ,Burger Village,AB,53.436403,-113.604288,4.0,10,5
aNXw3PkXVt8ANwLyCfcmpg,McDonald's,PA,40.2637063378,-75.3179157563,1.5,17,5
GVqXNt0HKJLpciN9ePxnWw,Crown Fried Chicken,PA,39.9368911,-75.1672837,2.5,16,0
JwBTq6IOFH97b9Hr6RT7pw,Reinette Café & Patisserie,AB,53.5225968429,-113.61922974,3.0,5,5
dChRGpit9fM_kZK5pafNyA,The Love,PA,39.9506555,-75.1708991,4.0,618,0
uyc-S7lauYjzouYQ2TM76A,Papa John's Pizza,MO,38.7461593,-90.2798145,2.0,9,4
YE2TePip0TxcdquF5hGauQ,JoJo's Hot Dogs and BBQ,TN,36.3260267,-86.7040631,4.5,14,2
KdkMXzeoqpfNsZd-_axoTQ,emPIEnada,NV,39.5428346,-119.8569115,4.5,41,3
od6skmfXz9twktEAuJHEmw,Ryan Christopher,PA,40.0099504,-75.2591858,4.0,120,2
j9Kaj_6tSeXmVMYCgZithg,Noble Crust,FL,28.188219,-82.347274,4.5,496,1
EIlFs8kybcG-l60GJjNUIA,Domino's Pizza,FL,28.0420037,-82.6746125,2.5,20,5
QWqKTWQ2OiDgo3dzNkpung,Jong Ka Jib,PA,40.0520643,-75.1273939,4.5,351,0
Wt1W6qwCvna1KzIuJRJbwA,Tokyo Mandarin,NJ,39.7119376,-75.1109667,4.0,88,1
ifjluUv4VASwmFqEp8cWlQ,Marty's Pizza,CA,34.4362361,-119.7261474,4.0,64,4
bPPy7yNFfb-6N_bHkn1qAw,Taste of the Caribbean,IN,39.7733919,-86.0860599,3.0,17,5
516L9-ZWyqVgzqjP5uW7Jg,The Corner Cafe and Deli,FL,27.9444574,-82.4578244,4.0,6,3
7mpYTDb24SywNMRn3yeakQ,The Twisted Tail,PA,39.9418766,-75.1451988,4.0,604,0
iEC0VzHM2hQ13wM7c0QwgQ,Metro Diner,PA,40.180187,-74.87527,3.5,56,3
OlD8UoHqrKnLoZUFxuas_w,The Hip Hop Sandwich Shop,FL,28.4934721999,-82.546930168,2.5,5,4
D7z_V6E8cxXghSRcHAmUPg,La Bella China Restaurant,AZ,32.149473,-110.9781864,4.0,92,0
gb7JjRJtzWDsIWpJihZhBQ,McDonald's,NJ,39.6773020944,-75.4953995347,2.0,20,4
JPm93BlP-UHYPqFgK66JUw,Local Links,NJ,39.8826936,-75.0583844,4.5,70,3
VeFfrEZ4iWaecrQg6Eq4cg,Cal Taco,CA,34.4305419,-119.882367,4.0,189,0
hsyIDX4x4ndYEvPoJF6_1g,Merendero La Catrachitas,MO,38.5787245,-90.2822168,4.5,22,5
rR30b1XWbxZFFgLyGbfNAw,BODHI : Craft Bar + Thai Bistro,IN,39.7802203,-86.1418027,4.5,132,5
4QFqi8w3rlZTcc5LXKyPJw,Chris' Pizza Village Pleasant View,TN,36.387932573,-87.0147362534,4.0,31,4
GpFRwCHN0RI8yFbcfXjfUg,V Sandwiches,AB,53.5417173,-113.4919398,3.5,9,0
QZLOM3T6xl7y1Q6zqoqHWg,Freddy's Frozen Custard & Steakburgers,PA,39.879183,-75.396768,3.5,26,2
9qxMhGWjGsuPUoQB3Y74Wg,McDonald's,MO,38.6369079537,-90.1954829934,1.5,62,5
pJB63RaQpkTIKBhfTsLQQg,Biryani Hut,IN,39.9970877,-86.0023117,4.0,83,1
TGfPJHImEq6AQL9a1laxlg,Chick-fil-A,PA,40.08178,-75.0267907,4.0,80,3
CPgWuWGZ4v2sZr5_-1kluw,Checkers,PA,39.9719414,-75.159771,2.0,21,0
VCkSUsdL5P0p16DAPxVROA,NY Bagel & Deli Shop,PA,39.960811,-75.1573883,4.0,31,0
dIpTuL2T1L98GQGU17IeSw,The Bricks,FL,27.9600238,-82.4444005,4.0,548,3
XRkzSBTroG7kIdI7Z8ic6g,Piccadilly,LA,29.994939,-90.18365,3.0,51,2
1tLrjXG-I9hkOoZxlbwDqw,Olde Black Horse,PA,40.1083808,-75.318943,4.0,9,2
SlLfWzeYOrVBxCd-0QILZQ,The Boiling House,NJ,39.8996609,-74.9532997,4.0,238,5
adATTqggIQX5xxLDISkFTw,Just Churros,AZ,32.2712313189,-110.9920754497,5.0,25,2
bdfZdB2MTXlT6-RBjSIpQg,Pho Bistro,CA,34.4129345,-119.8555307,3.0,184,0
ZpmSEd9N042IJanBiKlKiQ,Smoke & Thyme,ID,43.6111922,-116.2062753,4.0,19,0
SwWfW3vBn5QkDE7T3urGAg,Persis Biryani Indian Grill,TN,36.162142,-86.516006,4.5,246,5
W4rgF_1eKzFZiGUOsgbGMA,Amber Indian Restaurant,IN,39.9710819,-86.1601728,4.0,243,1
yN6jZyG1G1FG_HCZQlJZ1g,City Barbeque,IN,39.979376,-86.001692,4.0,188,1
-lVTNjVoTMOkD-eT--u0oA,El Rancho Nuevo,MO,38.7687445,-90.5219795,3.5,66,3
TCxvQgfBD6_JjOM3N1VPRA,High Ridge Family Diner,MO,38.4863979071,-90.5041513042,4.5,8,2
lPPYZr1_jx0XeW-xR9WJtw,DOSC,AB,53.5428720873,-113.4995122836,4.0,87,0
0sr1EyOc6Td1C-962QW88w,La Cucina Italian Eatery,PA,40.088398,-75.2926963,4.0,44,2
SFKjUQ1gmfwm7cJhMCFmkA,ZigZag Scallop,FL,28.497700000000002,-82.650015,4.0,214,4
frsWe9bmMOMIBOBNzsCTew,African Palace Bar And Grill,MO,38.7790065,-90.2800209,4.0,26,4
xwSWtJcQkzTF6HNm_IMgcg,Rusty's Pizza Parlor,CA,34.4290427,-119.8693616,2.5,94,0
yFqq66GxRjnhZXPgjA6hnw,KFC,PA,40.031578,-75.104787,2.0,7,0
IbndcMURguByburM72o3SA,State Street Kitchen,PA,40.2285432,-74.9370146,4.5,124,3
diwwt5QBU3-Thig9SVlsOA,Brew Brothers,NV,39.5295616355,-119.8145651258,3.5,592,5
3uvFklejzRPwEPEZQ5vHYQ,Wawa,PA,39.916175541,-75.3876546369,3.5,14,2
0l_njS4wGMadAk1b4nZRUA,Panera Bread,PA,40.089985,-75.382315,2.5,58,2
lB6jIOb1UBATmdfot4KJew,Soco's Gyros,MO,38.5245347,-90.355678,4.0,126,1
cm0bhBDPM3bjBefmEXa3BQ,Nudy's Cafe - Chadds Ford,PA,39.8808598,-75.5482765,3.5,63,4
MObScX791gFEwtkoFA9GQg,Creekside Inn,NJ,39.65126,-75.31747,3.5,20,4
3c9TiufCFT2yXXj3R08Vwg,Snellgroves Restaurant,FL,28.0148425,-82.1231756,3.5,64,2
TJe1ZGe-X0-GjOQd00kKxA,Brixx Craft House,ID,43.671633,-116.283591,4.0,115,3
nHUJCK-Ek_lAVTSyEz9GEQ,Adventure Coast Fun Park,FL,28.4352625,-82.5669664,4.5,10,4
jZoeTGRfhG9n_Jo6VMqwxw,Sushi Wasabi,AB,53.4945772799,-113.517946463,4.0,57,0
A1lAqN3SOaBLoo6NqVcy4Q,McDonald's,FL,27.925332,-82.325395,2.0,6,2
kGjpBqAqG4mIuFSgU2KKEA,The Royal Indian Cuisine,PA,39.948365,-75.1744997,4.0,28,0
kLSEk3qXY1KdtFjxHJ9pww,McDonald's,PA,40.0884161,-74.9650112,1.5,20,3
uKEabBQrn0gLzvTppOrKIA,Casita Taqueria,FL,27.7969762597,-82.6381678127,4.5,207,0
8JEOmVGQffkr6xtn4vvplQ,Pita Kebob,FL,27.713401,-82.394372,4.0,142,2
rF0xI_3jjlsEKp3N0Z0BuQ,Trattoria Totaro,PA,40.0750524,-75.2945235,4.0,135,2
qma1sGQv7ArUtzuUTQElRg,Katie's Pizza & Pasta Osteria,MO,38.62468,-90.5150663,4.0,313,2
zjQDk4tZyhEroyqtkgvx0g,The Cobblestone Eatery and Drinkery,IL,38.6041071,-89.8085329,3.5,52,3
jsQQu9rVerR3OGxIa0hRQQ,Kelly's Taproom,PA,40.024588,-75.3242387,3.0,63,2
Hp3Ony7yW60VPuWHQFIIHA,Frady's One Stop Food Store,LA,29.963974,-90.0426042,4.5,73,0
UX3eq0WsVva-cqlVrzyzFg,Cantina Los Tres Hombres,NV,39.5351105,-119.7548567,3.0,284,2
aSJdDcspNCf-2oNF2E6SJQ,White Castle,MO,38.7061191433,-90.2701565031,2.0,6,4
hDiCHlTXKGUj1Yh4tq223w,Pasquales,IN,39.7132613,-86.2360801,3.0,26,5
JQ75_672GKJQ3tK1togIWw,Golden Capital Restaurant,AB,53.5126039502,-113.3179124712,3.5,8,1
sophKEDc2rBDe-cuOaJDkA,365 Caffe Italiano,FL,28.187946572,-82.3500558385,4.5,127,1
18eWJFJbXyR9j_5xfcRLYA,Siam Elephant,CA,34.3965102,-119.5216815,4.5,460,3
KsDY9IYqvumohkp74w5i6A,Jersey Mike's Subs,NJ,39.848349,-74.97713,4.0,21,5
VK5NEKDHnZG8YcAw2JpaWw,Spring Hollow Golf Club,PA,40.185507,-75.574882,3.0,29,1
dBCNUSbz5-8nQNrxWo5deg,Blue Sage Vegetarian Grille,PA,40.1751076427,-75.0432257715,4.5,572,3
71U7MxQEhwitJOm4CQpRwQ,KELP Sushi Joint,FL,27.920067,-82.4989209,4.0,325,3
mYbEGFsRcA0tfUNSYcBJMA,Golden River Restaurant,NJ,40.0377027,-74.9592809,5.0,8,2
Mt1FB8hM4XTi3Tk4i0q5gQ,Nicola's Pizza,NJ,40.3664177,-74.9416785,4.0,54,0
2DsplH_vy4GCcEnVpn0AbA,Cafe Olivia,IN,39.768973,-86.153309,4.5,34,5
sWCCxY1-9B1FGlSVeQvnHg,CD Roma Restaurant,FL,27.7854888011,-82.7302946082,4.0,125,0
wcpL6sD6jKsBO0tbdK2KEA,McDonald's,IN,39.9575816,-86.0106627,2.0,34,1
ZH-D4qbLggBSvwpF0zXrQQ,The Original Pancake House,ID,43.6192456,-116.2546881,4.0,155,5
zIDuAuwyaLmNwv4k18mbwA,India Palace,IN,39.8317759,-86.2404209,3.5,167,3
Gki1ureeRKqlIkQ-AELDVg,Brugada,TN,36.163323,-86.7765917,3.5,49,1
q2N2KLhAeD0c0p-ryI3uDg,HotBox Pizza,IN,39.85806,-86.390022,3.5,14,0
q4m9o8LDJRrdU1DcgcAm3w,Auntie Anne's,FL,28.0173889,-82.734549,2.5,10,5
JomDoQafikclSVVCPkWjnA,Cedar Park Cafe,PA,39.94796,-75.22198,4.0,301,0
gI34hM-873fwF1XQ8hOaSg,Joe’s Pizza and Pasta,IL,38.9491828,-90.1903059,4.0,17,1
1ddqdY_piKp-abaZ-bGRSA,Crescent City Steak House,LA,29.9733253,-90.0810244,3.5,226,0
0pMj5xUAecW9o1P35B0AMw,Wawa,PA,40.141292,-75.389286,3.5,8,1
RuBWR6CAgVi7iWR8LHUi6A,Lee House,AB,53.551925,-113.4896661,4.0,30,0
gl9APAes1BYYt_8UsDVsPg,Ted's Luncheonette,FL,27.9278613,-82.7961982,4.0,37,5
gyUBYwpUO_u0nqZdre4l1g,Shanghai Express,NJ,39.916113059,-74.9215189617,4.0,74,5
wMyHVb54Ne9SNasa4kjOCg,Carnivore,MO,38.6184117,-90.2741825,4.5,281,5
4FaYG9qKDpDyr68bKmaIEw,Capitol Cellars,ID,43.6135729,-116.1999038,4.0,176,0
rqaIe-61HKlWaGYmVwlw8Q,Petite 4,ID,43.6046712,-116.22804,4.5,121,0
kq5Ghhh14r-eCxlVmlyd8w,The Coventry Deli,PA,39.953291,-75.173645,4.0,65,0
MYoRNLb5chwjQe3c_k37Gg,Sean Thorntons Public House,PA,39.988107,-75.105553,3.5,6,0
L7mbUPFMAfetY0fzuYtZ_g,Dunkin',NJ,40.0153779791,-74.9543424694,3.0,7,2
7Ct4QuWaY63DkAOXqEiVGA,Hong Kong Chinese Restaurant,PA,39.9033171,-75.2844083,3.0,18,2
Wc-c_hQK4vFCl9keeVTUZw,Felix's Restaurant & Oyster Bar,LA,30.023792,-90.1136223,3.5,255,2
YhQAQhG1IkXJH7oLZMbM9w,Del Taco,NV,39.5836527,-119.740935,1.5,60,2
qMmEEvmRvcyJUD5SrKNCtA,King Ribs Bar-B-Q,IN,39.8540036,-86.2406392,3.0,20,3
qS4CaO_u_vMrTl31XJto1A,Szechuan Paramount Restaurant,AB,53.5878652,-113.4915257,3.0,25,3
NVpbPRDvfwjb85CJwWE0nQ,China Wok,PA,40.0903977316,-75.0926760348,4.0,55,0
LVteL0Rnh2E_yOFCLJUPhg,Double Decker Pizza - Media,PA,39.916169,-75.382347,4.0,88,2
HjLYCBxJti8V-hsP_yVZ3w,Taj Mahal Homestyle Indian & Pakistani Cuisine,ID,43.6161949628,-116.2027077,4.0,280,0
Iuir7lUtx-LMhYtStwyf3Q,Another Broken Egg Cafe,IN,39.904151,-86.083809,4.0,26,1
vVm2qH6n4tWzN_qv6PBIVw,The Humming Bird Jerk house,FL,28.130283,-82.364992,3.5,32,1
skN2XhKXlcjf53uIwzAedw,Burger Up - Franklin,TN,35.9459704793,-86.8279486659,3.5,329,0
du_yelFmWOZDEyIAE-jdsQ,Taco Del Mar,LA,29.9522480802,-90.0782639989,2.0,9,0
y1HgVnt4K5owmYXC5yXLGg,Flambo Caribbean Restaurant,PA,39.9686973,-75.1606146,4.5,138,0
vo12FJ4dAdP8Jr4ctFYRkg,Painturo's,TN,36.2244538,-86.5418712,4.0,46,5
8P7YOM9ThhTvLqXfSWRcRA,Noodles & Company,MO,38.6735532,-90.4204985,3.5,65,3
I2CxrvM0BGH1svfxqGGD2g,M.L.Rose Craft Beer & Burgers - Melrose,TN,36.1226231735,-86.7761365195,3.5,472,1
wMJlbZt2vOTG_FV96gkRVA,Dunkin',NJ,39.9374871,-75.0363126,3.5,6,3
RrqRin8BYGrTlJbCDwtLzA,Wawa,PA,39.9510885597,-75.1989988336,3.5,50,0
Nolwnmtnt5QeDGlS0bsCGQ,Five Guys,AB,53.5126210396,-113.3219998596,4.0,37,1
2vAqYNN86VWXZiy2E96-TQ,Chick-fil-A,AZ,32.2324455,-110.9516985,3.0,13,2
wUEbysNWCtMSQAio6Ktn6Q,Lucianis Pizzeria & GRILL,PA,40.138836,-75.1952339,3.0,22,5
W4ZEKkva9HpAdZG88juwyQ,Mr. B's Bistro,LA,29.9543868,-90.0683629,4.0,2064,0
3swM60bulnut1d4AZti80Q,Rockabilly Grill,AZ,32.2739894,-110.9775344,3.5,37,2
4fUok5d5vgdQEb1Bzzg0rA,Olive Garden Italian Restaurant,LA,30.0200051249,-90.2493493809,3.5,115,1
bdth7r1brx9yRU7sYwF9jQ,Nippon Tei,MO,38.596068,-90.493565,4.0,254,2
g7GCbnZC_HKO0ybNt7NXBw,Popeyes Louisiana Kitchen,TN,36.202427,-86.692898,1.0,6,5
iNMdSi5bmvGSGeRQiUW4dw,Wendy's,AZ,32.1637404,-110.9167218,2.5,14,0
rBE5TT_ndOOczNBrbRnJwA,Dio Modern Mediteranean,FL,27.9491200666,-82.458398826,4.0,325,3
oRZzKWdyMQld6N_y4UWkAg,Terra Sur Cafe,FL,28.0819277157,-82.5391477434,4.0,316,3
LKGlZW0mmuoXvKB04FSP-A,Crab Du Jour,NJ,39.7566327,-75.0463982,3.5,26,1
dUctvEfHQccW_uxtRup2QQ,Tsunami Japanese Steakhouse,FL,27.7899621,-82.7262212,3.0,212,0
TSgZB6PkWFjmasewVkySjA,Bar-B-Q Heaven,IN,39.8104692,-86.1413134,3.0,10,5
K5ffo0hkwhG33BDNQrJF6A,Slate Bleu Restaurant,PA,40.3072739,-75.1299259,4.0,105,5
Ojd913yxClnEwQSthSd8XQ,BarBurrito - South Edmonton,AB,53.4531516,-113.48298,3.5,8,4
oQYZ3j2H758y07p4RpCWug,August Rhodes Bakery,AZ,32.2627192,-110.9446296,4.5,89,2
lgu_KwQLd8TX2ewsNIzsjA,K-Bop STL,MO,38.6549760334,-90.2968843281,4.5,69,0
HuDNHqKv9n1mWpe4BqCnwA,Minas Pizza,PA,40.0352350987,-75.2167929785,3.0,54,0
XQnb4KnTqO-QdvEFYpcwAA,Domino's Pizza,LA,29.8968561,-90.1409146,2.5,11,3
H2nFgEFitRk7ltE8IRH0xA,Taco Bell,FL,27.944918,-82.523213,2.5,42,3
koeubKPpi6ax4FDh7_zcWg,Palo De Azucar Cafe,NJ,40.2071578,-74.7499323386,5.0,5,0
BxR5hjyBnJZrm_nnaCtGQw,The Lunar Inn,PA,39.9822933,-75.1031599,4.5,29,0
T9n_LqUUhC2b1ALhg57Y5Q,Texas Roadhouse,PA,40.09165,-74.93997,4.0,240,3
slie9368A_rG70_1Wxe50g,Domino's Pizza,AZ,32.2644762747,-110.9259400061,2.5,27,2
_NhT0A3LUEd75L_cEXf2_A,Season's Pizza,DE,39.7457361,-75.6098744,3.0,7,1
NQSnr4RPUScss607oxOaqw,Chase's Hop Shop,PA,40.0603863,-75.0845897,4.5,116,0
Ea2hPSFazxXITET4f6ZJhw,Beef 'O' Brady's,FL,28.140648,-82.461204,3.0,46,1
C3roKH0ekXBz8l0ZoUIvAA,Roadrunner Coffee Co.,AZ,32.2865595,-110.9982234,4.0,9,2
7utsfp2dXJ09j8Gb9hAIvA,Suzy-Jo Donuts,PA,40.1053723,-75.3404208,4.5,89,2
joeRm-_7T0XTkMdKo2nbaA,Paola's Pizzeria,PA,40.0451819,-75.388188,4.5,126,2
QehLpDI-ZdJJLu5dobDdxg,Mundare Sausage House,AB,53.570634,-113.416455,4.0,7,3
k0AO8X3VzWe_F4lkMb0eSg,The Cubby Hole,NJ,39.9647367,-74.9453088,4.5,202,3
_HcAoG6Jj_XTj4-XNEbo6Q,Fuzzy's Taco Shop,FL,28.0533288743,-82.3928146398,3.0,172,3
MuKoTR56s6elHEI2wUkgJA,Grace Meat + Three,MO,38.6267906,-90.2567049,4.5,470,5
V6Om7YZhlRQRU7WfuxHq8Q,Beck's Cajun Cafe,PA,39.9533224742,-75.1590000821,4.0,485,0
COclRBaXBjYpomS4syUmvg,Monon Coffee Company,IN,39.870878,-86.1422438,4.0,170,1
qUHaTDZlzjPXSvXrLk66mw,Rai Rai Ramen,NJ,39.9199498,-74.9283212,4.5,196,5
DOl21AqtT74dUZ3kvXNNcA,Golden Triangle,PA,39.9415201345,-75.1509702725,4.5,159,0
wgcSbX3osqRibWW7pVyfww,Jack in the Box,AZ,32.2298503,-110.9900599,2.0,13,2
FzelkV3vzxkRgBmVSIqALA,Edley’s,IL,38.7733254332,-89.9929298076,3.0,34,5
MKy5T5exCdH4IUVlYPtWkw,El Taco Torro,IN,39.834095,-86.0276615,3.5,14,4
GfDdZfZeq690h3AS5QbjvA,MOD Pizza,ID,43.6105313,-116.2838307,3.5,22,5
qbPsfIKJZQAlrPaYmSyZuQ,All Wrapped Up,NV,39.5401545,-119.7483949,4.0,7,2
lj-E32x9_FA7GmUrBGBEWg,Brio Italian Grille,MO,38.6324938,-90.4064437,3.5,366,0
QNxXsVPYcecUuhGRG-88OQ,Harvest Bowl Eatery & Market,FL,28.002703,-82.4590917,4.0,101,3
RzGr37s8p2ujVuN9of7ksQ,Panaderia La Conchita,TN,36.0744978515,-86.7254739712,4.5,44,1
_v8Ccd70N6uXw8muQeyhOA,Moxie's Grill & Bar,AB,53.5978212,-113.5706935,3.5,52,2
isbeaPln-E0DdffLRsuFhw,Francisco's On The River,PA,40.3136566,-74.8957796,4.0,109,3
5wgoIQXyP3BEPZLiVi1W8A,The Howlin' Wolf,LA,29.9426876,-90.065991,3.5,213,0
2FOU5-I_eCGVNdr8R5wciQ,Texas Margaritas,IN,39.949498,-86.333274,4.0,27,3
i8UZblHPk2O-iNKJrnWQ_Q,Taco Bell,AZ,32.220539,-110.809269,2.5,26,1
hTyJhpH7Bl5moMWQb4Sosg,Island Fin Poké,FL,28.169016,-82.356628,5.0,88,1
2quqM0ajKfTC_DV8sLAvxQ,Jon Smith Subs,ID,43.6033767164,-116.4330922049,3.5,39,1
CyGxCUdTRGUPKGOgzC6Zug,Hudsons Canada's Pub,AB,53.5178491,-113.4951883,3.5,54,0
IXv-g1iK3Hwsnxp0vT8OgA,Whataburger,AZ,32.2979232056,-110.9969272166,2.5,71,2
PvT44WlqJLkUrCITo6AjRA,Breakfast Boutique Chestnut Hill,PA,40.0771492176,-75.2087070076,3.0,151,0
7pxE4BFDibv6Q7MBbNOPQA,Los Rancheros,IN,39.8829229,-86.2435883,3.5,45,3
i6kNeNRrER8ocnpkBJ3wBA,Drexel Hill Pizza & Grill,PA,39.9505756,-75.3120184,3.0,54,2
xPSetcLWfl_3JoENfGf89w,Sauce On The Side,MO,38.5667652088,-90.4985027735,4.0,37,2
eJFw8xWcqyAno0SclR4uzg,Madison's Grill,AB,53.5407845,-113.4922256,4.0,51,0
ziFtaIQdzQfFL79iLTq_zQ,Zac's Hamburgers,PA,39.89378,-75.3197179,4.0,48,2
7p4iMnA_hE1Gpz6Yoc7TOQ,Meal Prep Reno,NV,39.518212,-119.73758,4.5,23,2
uE3yzH2l1A_FYciu95EptA,Koi Sushi & Thai,TN,35.8994368,-86.8755453,4.0,157,0
2fTfpN5SggLgW4LlzptMPg,Tzin Wine & Tapas,AB,53.5410214625,-113.4992408752,4.5,116,0
aYJjJMN8heS2PmkvsQzaZg,Treme Coffeehouse,LA,29.9654586,-90.0695669,4.5,137,0
yS0TsUzKBQlHQCZZeBrxww,Tortas El Guero,IN,39.8244846,-86.2709327,4.5,176,3
7L2E_JyL7L2vgVAxArcUYg,Penn Station East Coast Subs,MO,38.5113828241,-90.4436020476,4.0,12,2
QkyEr9j7il9lJqseTbPe5w,Spasso Italian Grill,PA,39.9182380676,-75.3896167572,3.5,192,2
Nemb9iLSuFgHsU6Rv8Y1Tg,A&W,AB,53.6224138,-113.6075804,3.0,8,2
XGV6orMei8NRfmbpsRC3Rg,CraftyCrab,IN,39.9149138,-86.2259734,4.0,28,3
8SqvtaRu9likNDAfAU-HBQ,Panda Express,TN,36.2027284902,-86.6944885254,3.0,15,5
CE9wc-UtRIwiyo5i4QO1Og,CACi Wood-Fired Sicilian Grill,ID,43.687375,-116.334128,4.0,156,4
7CBsFEzEny_Ro833RS6Acg,Farmer's Market Deli & Grill,TN,36.169445,-86.78794,3.5,9,1
AaWmckcT3O1iQSAIUmzwUA,Basimo Beach Cafe,FL,27.9519956663,-82.829717,4.0,339,5
vQ3bOb_sq0peWxJx3VoCDw,Jimmy B's Eatery & Pub,IN,39.9411009,-86.1463788,4.0,42,1
-rTJCKclkU_ZnoQb4oKa9w,Fray's Donut House,FL,27.820184,-82.655327,4.5,60,0
5TVWytR2oNbSKYgfxypuBw,La Patisserie Chouquette,MO,38.6197152,-90.2556467,4.0,229,5
nBr6NgqcZz1GhtAngU0RSQ,Forin Cafe,PA,39.9813471541,-75.1322471288,4.5,10,0
_1jlbXWMxN50PQlaRpev7A,Reytas Filipino Cuisine,NJ,39.8801882243,-75.0052480303,4.5,79,3
UFpCraqzFBAhtZqmxmiWsA,Cat Therapy,CA,34.4233018995,-119.7054707479,4.5,116,2
jcmqREAt1nOg3ABv4ZeD3w,Julian Restaurant,FL,27.96264,-82.5694048,4.5,27,3
y44MbCvvtmg1FpkNGSWisw,Tony's Luke,PA,39.8773236045,-75.2436721818,2.5,172,0
diqXZ9CBFlIHW7i9UHefhw,Burger King,TN,36.0842766668,-86.7042401,1.5,9,3
sway6xsRT_CUC6peK_Pyww,Bobby Hotel,TN,36.1647114553,-86.7793040316,3.5,178,1
IazLGcO9aggJnMMa_5UO1Q,Kimberton Whole Foods - Collegeville,PA,40.1826806624,-75.4521030608,5.0,6,1
l8uzbLGk9CLjElcWGyBZ0Q,Transcend Coffee - Ritchie Market,AB,53.51263,-113.476381,4.5,32,0
0HgAYe8KZ_8nHyELHFwrpA,Wendy's,PA,40.2590433156,-75.325845754,2.0,13,5
uxoQdZD3mEptaPohiLQg1w,Stone House Grille,PA,40.1298141,-75.5764069,4.5,56,1
fgIAN_Y-hgPq6E-MPZk8vg,Panago Pizza,AB,53.4263416,-113.5188169,3.5,7,4
LSdg7x7HhUdvYUevvYVHjQ,Sunoco,PA,39.983319,-75.101136,2.5,8,0
_49FsmTfruZSTjxU4OwOsg,Taziki's Mediterranean Cafe - West End,TN,36.1436547,-86.8135218,3.5,120,1
24Rr4ALt3fDNROR5LEgp0g,Imo's Pizza,IL,38.9226213,-90.1925518,2.5,22,1
E9-k8aOCS2sSh9RYxvWU_A,Steppy's Sports Bar & Grill,PA,40.1455977,-75.3182664,3.0,69,5
AuTmUY381to83xPwovoERg,Wingstop,TN,36.2649788207,-86.712538285,2.5,31,2
yzRC9gyhblU3a5hDct2S2Q,Hykel's Submarine Sandwich-Bar,PA,40.000783,-75.2964267,4.0,34,2
KidSvYABnawyuS_3lIYQzQ,Mercy’s Bakery,PA,40.2358073358,-75.289159186,4.0,5,5
IS0B5nLJPluVT8NwGgospA,Cheddar's Scratch Kitchen,IL,38.5965175492,-89.9841942417,2.5,187,4
dERS4qwl9v-Gwft-Ug8APA,West Ave Grille Jenkintown Restaurant and Food Truck ,PA,40.0957738,-75.1265509,4.0,277,0
Xjal8g4PsYinAfeQ8RWf4Q,Wasabi2,PA,39.9037528,-75.5625925,4.5,78,4
-JStjL-8mRZq4ov4uI1FaQ,Luberto's Brickoven Pizza,PA,40.3753297,-75.208113,4.0,96,5
UVpki6wyHLR0mujHcneTfg,My Brother’s Bar,LA,29.9369806759,-90.1980554486,4.0,6,1
U30ggGzFpXvc2NZYwOW3qg,Mood Cafe,PA,39.9486639126,-75.2158315415,4.5,458,0
YUlWhx8rq_Pc5yVKrp2awQ,China One,IN,39.7139411077,-86.2348012608,4.0,23,5
X64JH5kXOjWsBCsGxmFSIw,Cinco de Mayo,TN,36.2197054,-86.5722192,3.5,35,5
NKplFLr1UebQxMLQAxALPQ,Tandoor & Tikka,IN,39.905788,-86.077582,3.5,78,1
0t14RIHl4wODz7LRiRRQ0Q,Salty Lime Cantina,FL,28.0783137,-82.7666322,4.5,103,5
5fvs7pOE6amG17SiPovxjw,Paradise Pizza Cafe,FL,28.0330086,-82.4077832,2.5,7,3
jLaPtjlLfRSaoBWIcHcSQg,The Mad Crab,MO,38.6727336,-90.345018,3.5,156,0
dE_MaaYrXBAEebtH2u_B-w,Wilson's Market,PA,40.0390528,-75.1438169,3.5,13,0
Z5LGSHEYjCUtKwjKotCNqA,Chinese Delight,PA,40.0477909,-75.409318,3.0,52,2
68ThEdiK0eWCEgGEmV9Tng,Southgate,PA,39.9455687,-75.1717901,4.0,323,0
0_gh-ZRllduRLrjaYy0Icg,Wawa,PA,40.0122256739,-75.2619556997,3.0,13,2
jkkzfaJf-MTG4nmJcX1zzw,Bevan's Cold Cuts,PA,39.9649478,-75.59756,4.0,15,4
VOEN8f9WEysinBsLqbiVqg,Andrea's Restaurant,LA,30.0073382,-90.1538509,2.5,218,2
JWFpjvCc_nkNDVtMPx1ZGg,Bogo SB,CA,34.4230427,-119.7032863,4.5,12,2
gzln_L7ch8z-Ob6autmumw,Trip's Diner,FL,27.8399412788,-82.7854389294,4.0,223,0
c7DQU8rHH_GjLdeIvanQmg,Coco's Cocina Tex Mex  Restaurant,NJ,39.732375,-75.130925,3.5,59,1
J7Oo9rhwX7O3ak54pu_Mhg,Captain D's,TN,36.16937,-86.67255,3.5,14,5
wDE1AfRVCKUL11hKehQEfQ,Cafe with Soul,PA,40.3320849,-75.1305488,3.5,26,5
h2nBTqJVHAyltyeq7sZZ-w,Blueplate,NJ,39.7322517,-75.2240679,4.0,232,1
cEG1r9aRMJwmRQVkh7eiJg,Falls Deli,PA,40.0128847,-75.1901845,4.5,31,0
idRTl_xdqB12GWXIsisW-g,New Hong Kong Chinese Restaurant,FL,27.87184,-82.760131,2.5,18,0
LC-qVqvkMRmK_ed-SImCXQ,Salvatore's Trattoria & Pizzeria,PA,40.0972098875,-75.3668700904,3.5,38,2
9dm_v79s9-pefMahqp1SkA,Loco Mexican Restaurant & Cantina,IN,39.7974826702,-86.1530939541,4.0,178,5
DMmdMkh7sIhUHgVawGxY6g,Farm Boy Fresh,PA,40.0442832,-75.5241836,4.0,11,4
nFjk0xVI9fNiVN__5g-m8Q,Ichicoro Ane,FL,27.7701014,-82.6364594,4.0,264,0
QEF6usO04AtvrazPhLX_sw,Chinese Express,MO,38.7353075,-90.301102,4.0,15,4
TttFjRQ-8Iz8by4hsD7iOQ,Angelina's,PA,39.940221217,-75.1557966694,4.5,49,0
niEm9LkcLOrvsDzjXD6WpQ,New Orleans Hamburger & Seafood Co.,LA,29.8768457,-90.0482728,3.5,113,4
aurl4I40YVQfQ8loOdgKCg,Crown Fried Chicken,PA,39.971145,-75.15902,3.5,11,0
V4THIJk9uhoxL7f06fK5VA,Roundabout Catering,NV,39.528286,-119.734864,5.0,38,2
ifofBiQeb6DI0-u0KEQybg,HAPPYJAXX,LA,29.945239,-90.069555,4.0,24,0
_cndcbuaqSRW5f-MeZasNw,Toyama Japanese Steak House,TN,36.040788,-86.7402801,3.0,142,3
iapJoe3OzxeZqOGUJxnG3w,Fresh Healthy Cafe,AB,53.5568884242,-113.2741134955,3.5,8,1
WMI3BjDby0U-IF6NnN0SXA,Cherry Hill Pizza,NJ,39.9100678,-74.9958273,3.0,27,3
0oogOBGXNj39Wnl2SKoe0w,Breakfast Club,FL,28.3052669,-82.7011217,4.5,80,4
iq0qAJ2Oc3myUTTMLseTXA,Lorenzo & Sons Pizza,PA,39.9604595,-75.6049474,3.5,71,4
tXf6TpqHOLiwyMNbYAOOCQ,The Little Lamb,FL,28.0114224507,-82.7109746614,4.5,307,5
WQ832PDnsDshhbQFm83ISg,Villagio Cinemas,FL,28.055282,-82.506247,3.0,285,3
5PDNXMquh1C9E089G1RY2g,Ob's Pizza Pub & Eatery,IN,39.797385,-85.9921824,3.5,10,4
UJE-f8gVEB2za5QPZd_wVw,Pizza Hut,LA,30.0226540534,-90.2691832749,2.0,16,1
3GGGwkQ8A0ICQTfwTKPiQw,Captain D's,TN,36.4922337558,-86.875317026,2.0,10,4
Y3ZCO17N1_T_Ms1JmswwzA,Taqueria Pico De Gallo,AZ,32.1920174772,-110.968540052,4.0,397,0
AjEg3RzLzQwv4xPPzTc6wQ,Burger King,LA,30.0010945472,-90.1325079767,1.5,23,2
di5ihAL9VWoctHelY8kLTQ,Gigi and Big R,PA,39.9512903,-75.1992768,4.0,81,0
TTsBa6e2qgIEkiFQfYLmYA,Twistee Treat - New Tampa,FL,28.1440679511,-82.3539949058,3.5,70,1
Cr-uaPrfvG7tvqzLGAGErA,Kyoto Japanese Cuisine,AB,53.5231333193,-113.5113531433,3.5,58,0
zxpJ4Frr8Zoru-YaNzOxzw,China Spring,TN,36.0441354,-86.9579331,3.5,33,0
j5U5O3scMvPe67jzJcWFug,Zaxby's Chicken Fingers & Buffalo Wings,FL,28.0146920537,-82.6140054742,3.0,37,3
gv9IWG3dejsacl6xPG-yyg,Little Caesars,TN,35.9331871,-86.8246085,2.0,14,0
bk3u2UQoo516mPz9e1_vqw,CAVA,PA,39.9870475,-75.4059742,5.0,5,2
RCguFZat10TcbDMeeeM3IQ,El Pollo Loco,NV,39.4555489488,-119.7781964498,3.0,73,0
IZv79jZv6el1sBHrG7426g,J Gilbert's Wood-Fired Steaks & Seafood St Louis,MO,38.6017712,-90.4475467,4.0,268,2
Pb5agnsD9EdCl6yuZp2jJA,O Sole Mio,PA,39.9378287,-75.1482632,4.5,85,0
WMgB7_odx8hk3BFQAIZ5hQ,Thai Phooket Smyrna,TN,35.9317024,-86.5338211,4.0,76,3
HJe8eEH5qXRjQMAh1VfV_w,Kobe Japanese Steakhouse,FL,27.7969526,-82.7278308,4.5,91,0
XsjesLpDVSToQIxSeON70A,Pizza Hut,NV,39.6132777,-119.8478089,2.0,48,3
_uQEKHH0R5fxrYkLrUI9pQ,Gu Wei Noodles & Grill,FL,28.1316091,-82.3691327,4.5,40,1
lhsQkb5nhf-Kd5OvgB9MNg,Sachiko Sushi,AZ,32.1336786,-110.9234427,3.5,191,0
G0jHNZzhiHWCYZmZWCg-6w,Downtown Diner,IL,38.7013636,-90.1472908,4.0,8,0
plobBsTtVUODb353xxFT_g,Sushi Rose,NV,39.5347847599,-119.8694408537,3.5,634,3
ARgidflSXPHj7uhK-Y7hwA,Kampai Sushi Bar,MO,38.642407,-90.2632879,4.0,328,5
rD5cJ74ZX4UiBo1geRljPw,Spot House Restaurant and Bar,MO,38.8143567036,-90.3451039549,4.5,53,4
368cyArdo0P0aDUOhhE4PA,PANA Donuts Coffee & Boba Tea,IN,39.6933973,-86.0761149,4.5,163,2
Y_XyeCu8AkZyhcF0q5n8Dg,Pitas Republic,FL,27.7931488,-82.3354053,5.0,5,2
gi90NMmRhzl8vzM83UNOVA,Subway,FL,28.15011,-82.3539970377,3.0,14,1
TO1twT7_FLMbNeDm3KNNRw,F & M Delicatessen,NJ,39.930791,-74.9770416,3.5,67,3
1X0ZCiRUWkVsdINtZmRSiw,Auntie Anne's,IN,39.908954,-86.065503,3.0,7,1
PJeoajci4MBVuyAOQet57g,Dover Kam Kitchen,AB,53.5850722,-113.5290706,3.0,9,0
I1h0GRYp86eX-XqwVXsSGA,Zeko's Mediterranean Grill,FL,28.0322261,-82.4189253,4.5,345,3
0zH0l4Jbf-oove3cLvrFOg,Vecchia Osteria,PA,40.2280271,-74.9401945,4.0,359,3
fJNSx1WOo77TmP7Bl26w_g,Washington Crossing Inn,PA,40.293684,-74.871315,4.0,144,3
OScd9IP5nI7Cv9HDkrXDDA,Abbruzzi & Giunta's Italian Market,NJ,39.9702646,-74.8841016,4.5,44,2
JOvNunKJlWhwJRwLmUR9ZA,Tryst Gastro Lounge,FL,27.7745220251,-82.6327141048,3.5,295,0
ruFtZKwlJASx5BTk1dh5AQ,Wendy's,NV,39.5380547,-119.734624,2.5,35,2
Q21nd52A3wOMlu7b28ZISQ,Mandalay Asian Cuisine,MO,38.6000016051,-90.4468670117,3.0,16,2
b-EHLoRBtVgOpkv6-i1pSA,Huge Impact Restaurant,IN,39.8239812,-86.247598,3.5,36,3
vG9aD-fvsIimgo-l7u8-AA,P.F. Chang's,TN,35.9467222474,-86.8257665634,2.5,181,0
kJpoduG3wdA35WzOF_T1Aw,Mexico Lindo,FL,27.838651,-82.7173312,4.5,54,0
2y_CdkxEOJEJGyJApfCYpA,Rode's Fireside Restaurant & Tavern,NJ,39.7532524,-75.3024859,3.5,104,4
bc3K8KvLkLNu_XU3RkeeeA,LeBuzz Caffe,AZ,32.260933,-110.891826,4.0,33,1
PMpcbvBon1rfGE7pWKv8aQ,King House Chinese Restaurant,PA,40.1473976,-75.3956755,3.5,15,1
J8j18KB--ZH4MjTQryPEpA,Burger King,FL,27.8937618,-82.5193236,2.0,11,3
9L-MR0arflwFMF9szEBOOg,California Wine Festival,CA,34.4144660474,-119.6851896343,4.5,7,2
m6KZGTxRb9_ZyDpB1G6O1Q,Freddy's Frozen Custard & Steakburgers,AZ,32.3232068,-111.0442513,3.5,112,4
KPmFv_Ou6ddauV_gYauWzg,Taquería La Juquilita,TN,36.1621286521,-86.8611215519,4.5,74,1
nteD5A6CKXZPqbR9EltQng,Super China Chinese Restaurant,FL,28.283355,-82.677826,4.0,54,4
Ktw3a8hXOKL00UCk_1nSEQ,Bully's Sports Bar & Grill,NV,39.640527,-119.71245,2.5,126,2
Q28TlneXws1shf8ymTdxtg,Funland Raspados And Munchies,AZ,32.2511453516,-111.0123500904,4.5,6,2
FTsU1vykdDcqfP1uhqG9YQ,St Louis Fish and Chicken,MO,38.6667921,-90.2836674,4.0,7,0
sLgnx_WFCjEoPsS6NwU70Q,Le Peep,ID,43.6327829,-116.3523931,4.0,259,2
_IYHl6J9iB3lbeJq27pbsg,Taqueria La Hacienda,PA,40.02202,-75.1240606,3.5,10,0
i7WnyDXKpT-mPaHEMY-HcQ,Harvest Coffee Roastery,NJ,39.8514104,-74.9997241,4.0,13,5
aYMpjij5ShtEoZueMrQPRw,The Mill,CA,34.4211189,-119.690633,4.0,5,2
ZJC0ONdxmIlwidXd8E0fXg,BoomBozz Craft Pizza & Taphouse,TN,36.047064,-86.951448,3.5,57,0
XyGRDrgCK0z4CiA6nhwEaw,Persian Room Fine Dining,AZ,32.3750163,-111.0463201,4.5,258,4
cwvpVlg5BE2XXRWTHe3p9w,McDonald's,FL,27.7137051861,-82.3929427564,2.0,24,2
zJFs_-Qtw7fzAsrQvA3Ltw,El Carrito,NV,39.5251254,-119.7886252,5.0,6,5
mygIk3l_ShNNB-QbWlrRyg,Zydeco's,LA,29.8777671,-90.0173044,3.5,161,4
BiBwdFcG0ynK50_g7zJTOg,Chopt Creative Salad Co.,TN,36.032004,-86.79085,3.5,135,0
B6qHZCAs7Nka-1zdjCzAIQ,Butter's Soul Food,PA,39.9741307,-75.1815903,3.0,77,0
h3801KOXLyOt8BAMa1V5HQ,A&W,AB,53.5415746113,-113.3188727252,3.0,8,1
rKwIFN1poV6gHBIxp3FxkA,Hardee's,IN,39.781017,-86.09366,2.5,6,5
mtGTna-hyFhErb4Zma32IA,The Village Diner,PA,40.106526,-75.147507,3.5,80,5
XQfwVwDr-v0ZS3_CbbE5Xw,Turning Point of North Wales,PA,40.2101961875,-75.2236385919,3.0,169,5
tiVQ9_qoatNn--ITbMWRpA,RJ's Bagels,PA,40.201773,-74.820914,4.0,41,3
6WJ-dFE9axF2o55NQWrNgA,Tinker Coffee,IN,39.7148812,-86.2974891,3.5,10,0
pEYs1oVeJ6YM2SG5WEr5Pg,Burger Theory,IN,39.675040703,-86.3103263801,4.0,86,0
-3-6BB10tIWNKGEF0Es2BA,The 81 Hong Kong Cafe,AZ,32.2885403,-110.9631443,4.0,133,2
J1duow_JpO47UuqnrY_LaA,Little Caesars Pizza,AZ,32.1322587,-110.9993545,2.0,10,0
zhFKtchGIpRTfOZSpm4Zvg,Capriotti's Sandwich Shop,PA,40.0361194,-75.6286593294,3.5,38,4
nIE7ph1w_bttQMJQx5hUEQ,D-Town Bar & Grill,FL,28.0192509782,-82.774851719,3.0,91,5
N7wYxm84QtcqTJZfGWpxzw,McDonald's,TN,35.9453792141,-86.8237428367,2.5,24,0
yjYNk2K77o34anIhS4zJyg,McAlister's Deli,MO,38.5033740941,-90.4449900528,3.5,46,2
KAZ2Z3831eb5lHtUDKa8kA,Saladworks,PA,39.9557501,-75.1819889,3.5,8,0
cLlBDZxYJ1dt1JgMuZnXew,Olly,PA,39.9408776,-75.1511064,4.0,51,0
k7oZJB7BSx37e-masOmiLQ,Hattie Jane's Creamery,TN,36.1601939,-86.779742,4.5,7,1
S3WazoxfO3euuvQUOJRlFA,Subway,AZ,32.3435651,-111.0132429,3.5,6,4
aqubLw9IW03svL_uDXNJ8A,McDonald's,MO,38.8107873585,-90.2969466057,1.5,11,4
WJIc6ZlR-pd9W-Vt-rRtzA,Anani Bistro,FL,27.7389646,-82.7075848,4.5,17,0
V5KiEoH4E86GA2S3RQkf1g,Spice Grill,PA,39.9862724,-75.094699,3.5,12,0
MMRRS6YhVRx_iN5-JhMRYg,Han Dynasty,PA,39.9567105161,-75.1971027811,4.0,783,0
F_wIC6i5y4zdQyp99R7PdQ,Blueberry Hill Pancake House,IN,39.7723413,-86.0279803,3.5,101,4
1sXN7Oxteo5dP5nwIDyO4w,Mainland Grille,PA,40.2482605,-75.3609391,3.5,27,1
SNYpn2BdTbz8QrrfH8rvdw,Wawa,PA,40.0185596288,-75.2403088108,2.0,12,0
cGa8ySpfmtfQKPkHJKHnUw,Michael's Family Restaurant,PA,40.2501979,-75.2450803,3.0,81,5
vol4SJXerqyi3IEIDucVRQ,Hilldale Kitchen,PA,39.9195287,-75.2657251,3.5,9,2
CILklubZslDuVUMh2c55_A,Pizza Hut,LA,29.9973903816,-90.2184122801,2.5,17,1
SZgkdhd837HkbtVFVmSMXw,Guido's Italian Restaurant,FL,28.4918471,-82.5973869,3.5,128,4
LgiAzhOqrzl95NNRLziH2A,3 Agaves Mexican Restaurant & Cantina,IN,39.7642463948,-86.3839582,4.0,50,0
8uF-bhJFgT4Tn6DTb27viA,District Donuts Sliders Brew,LA,29.9294259,-90.0770687,4.5,2062,0
44FugwIywDjD6TwSESAmkw,QuikTrip,MO,38.5119857,-90.3191137,4.5,5,1
7biQIoyOEMcBGUw106UeOQ,Domino's Pizza,PA,40.20841,-74.799468,1.5,31,3
151ujtgcbkGzAHUnctSg4w,Faculty Club,AB,53.5300382,-113.5283787,4.0,13,0
5XSJImk924zdVk16cw8Jgg,JB's Bar & Grill,LA,29.9878551,-90.1300121,3.5,7,2
p21PCK17H3WL56KSr4Ykig,ABC Pizza House,FL,27.99554,-82.4743805,4.0,121,3
TI2EOpvaPbDEg1gz3GGqXA,Crystal BBQ,AB,53.5432079,-113.4842434,2.5,5,0
f8xDi3rajxvIqS73N93Afw,Guavaberry Foods & Drinks ,PA,39.938371,-75.1501031,4.0,13,0
Llu8_Lx2DFthmr99_eiOLA,Wei Hong Bakery & Restaurant,MO,38.6002991,-90.2429828,4.0,135,5
3n_G-_DwOJ2VS4uGxBN6sg,Lan Zhou Lamen,FL,28.0554349,-82.4292524,4.0,78,3
NyV_2EGhs-YHYYVmZRYmOQ,McDonald's,NJ,39.6470143366,-75.3344234117,1.5,14,4
q3AbKPlzrqbUh8tz26vsdQ,Wendy's,IL,38.5293592,-90.0356064,2.0,7,4
ymoEdJB5NE56sWw74uyX7A,Sushi Bar,IN,39.8694324,-86.1425102,4.0,346,1
AODksDNj5mH953cyhUG1Qw,Thai 5 Fast Food,FL,27.9120596,-82.5057677,4.0,336,3
tFpstYqxugKHzeyNUsuD_A,The Pint Room,IN,39.9785056799,-86.1286025097,4.0,423,1
qONvIS94nZhXYm-jccXyuw,Top Hog,TN,36.398778,-86.451974,4.5,140,2
sVWUxesVKseXGq78UwwajA,Steak ’n Shake,FL,28.2899929559,-82.711233436,2.5,45,4
Knt2mnsG15akKb9cjSiuxw,John's Seafood,PA,39.9709958,-75.1581617,3.0,9,0
PVqNBGihp6yNv6HTQf7CjA,Arby's,IN,39.8255452,-86.2371468,3.5,10,3
ugSVRAKO6mxvsrElFg8USw,México Lindo,PA,39.926402,-75.1575374,4.5,73,0
73ZQXm26Mb4Pr-ibmeGk6Q,Burger King,PA,40.1432439,-75.115404,2.0,15,5
ri7LOsk5W_xGVfxhXFHY5Q,Elbow Room Bar,NV,39.5354969,-119.7707084,4.0,12,5
wnjFEC-w0qWnyDnO8k1RpA,Nectar Urban Cantina,TN,36.16813138,-86.6804685,4.5,390,5
KZ5w1iPH1bSnf-wBEYgtQQ,Rice Bowl Deluxe,AB,53.5216024,-113.5785097,3.0,5,5
YCwWrnOh8qUmQbgQ4p02AA,Alfredo's Pizza,PA,39.9829917462,-75.3714380349,4.5,79,2
qmxmUc4xzNt3ogaZLH8Eiw,Versi Vino,NJ,39.9422608,-74.9955305,5.0,60,3
SjLYEsv94TjmSjG2Fc2piQ,Pizzarella Grille,PA,40.02132,-75.32528,3.5,58,2
VKFWX_Cd7cTiV3_RPdcXPw,Bamboo Oriental Cuisine,TN,36.011712,-86.5934286,3.5,5,3
duf2PORLOL6it1dTGhSnKA,Junes Breakfast,PA,39.9850064107,-75.246888042,2.5,20,0
Yh4OgbXQSpQ_ycK_FmNiGw,Suis Generis,LA,29.9649909096,-90.0426163126,4.0,100,0
1lC4dy6jlB2tBdBWbocO7Q,Wendy's,FL,27.8790638,-82.8327419,2.0,22,5
utReYPKNKwb15UytLOr-Xw,Newtown Bagel,PA,40.2289953,-74.9410147,3.0,63,3
2Q1R2OhBbAQ581vK_r7NhA,Ooka Restaurant,PA,40.1566693,-75.121837,4.0,394,5
uE05fHI5V2ZWi5Uo9-hwqQ,Burger Bar,AB,53.547509438,-113.528724622,2.5,5,0
fsPqRDDG2igV63nP89xWUA,Concord Steaks,PA,39.852706,-75.539011,3.5,33,4
dDn_NVOQh9F-t153S035Ew,Rice Box,TN,36.3265562,-86.6993617,4.0,67,2
9MHe5jAym2d8VhT_NbCRyw,Bamboo House,IN,39.6933755014,-86.07983582,2.5,49,2
zSqTndm5Alq9dW1PyzbdTA,Grand Isle,LA,29.9475671,-90.0651152,4.0,588,0
jAGzl-N2GINB_wK87bjoVA,RJS Tacos & Burritos,IN,39.7826835,-86.0464533,4.0,42,4
iDGohK_mkqnAfLeWC4P4TQ,51st Deli,TN,36.1619072,-86.84887,4.5,164,1
Ahwed4jRpXhmSCkcLL7FOw,Moe's Southwest Grill,TN,36.0371204933,-86.7983664088,3.0,48,0
MtZrHienTC6EnKDEGu6AzA,Medium Rare Carnivore Club,AB,53.3981447,-113.5694847,3.5,5,4
OAkcBAwedonnwT3Wf_DqTw,Parks Place Pub,IN,39.9571476,-86.0180566,4.0,52,1
NcO-pWiZmNM5zBg8H9zB6Q,La Tavola Ristorante Italiano,TN,35.9811081,-86.5193323,4.0,191,3
y7ZMH724MaQMW3yn5QbtiQ,Papa Murphy's,ID,43.5457571331,-116.3156733289,2.5,16,5
wtaBPP6fCHU4nvar9fKeuQ,"Chuck Lager, America's Tavern",NJ,39.8725486282,-75.0463546729,4.0,25,3
qejPFPUKiIXvHJ4BirgLUw,Rally's,LA,29.9452593,-90.0906756,1.5,13,0
YWcH3SLyRIBHIBBgudqZLw,Taco Bell,IL,38.5532348,-90.1661599,1.5,8,2
yH0ON2BtV52JXxWdZy7Psg,Flat Tire Diner,TN,36.202711,-86.621012,4.5,71,5
bKppmYKQ_-9cpp2yziB-Qw,Lincoln Chicken Pizza And Grill,PA,39.9738754,-75.1794242,2.5,20,0
DZdE09qqCcX7Atf3Df7Yqg,The Urban Juicer,TN,36.1521963,-86.8351768,3.5,27,1
LwVhbEy_SHse2G_P2JXMyg,Mo' Bettahs Hawaiian Style Food,ID,43.6028922,-116.3539042,4.0,109,2
EK4lynYPnlI_dqvWDVaOfw,Little Caesar's Pizza,IN,39.695689,-86.0833906,3.0,7,2
o6jfwLREaGy1mwAEybjOkg,Stefano Greek Italian Restaurant,FL,28.0280199569,-82.393829897,4.0,106,3
D_sIoGDRaLJv0DAIc46MMA,Ruby Slipper Cafe,LA,29.9793408,-90.1520954,4.5,347,2
UKA2eeAZmO4ACB2J0kFISw,Panda Express,NV,39.4749646908,-119.7922227358,2.5,86,0
k8cv3Hnu69lGuf0mo1MOTQ,Murphy's Bar & Grill,MO,38.6819249293,-90.4754887041,4.0,12,3
Uuzewy2CLg_XCekRhA0PIg,The Comedy Bar,TN,36.1624045,-86.774979,4.5,6,1
0fYRCLVFWte0uo-1W7gJGQ,Hōru Sushi Kitchen,TN,36.1607338108,-86.7797130577,5.0,8,1
zBHAoHU-SD7wECkKpTGImg,First Watch,FL,28.0449208,-82.68053,4.0,93,5
0sEQcUD5WEdwBJBXavafHA,Pina's Pizzaria,PA,40.2902135,-75.1997474,4.0,26,5
Z5C4q4mouUojigDmCRuG8w,Taste of China,IN,39.563839865,-86.0917538235,4.0,21,2
kgywEv9dQHcvEAu741y3RQ,New Bamboo Garden,NJ,39.7338119,-75.0638068,4.0,34,1
bQKqeYwaHNal7JFAXzCMFg,Super Gyros,IL,38.5170210269,-89.9513851956,4.5,79,4
sNDXKUS14_xXdD0fJdw23g,Jimmy John's,IN,39.880535,-86.271365,3.5,14,3
s55Hw6gHhQzZctinFhPu-g,Urban Eatery,PA,39.9570681,-75.1916189,2.0,9,0
n6dw_zxL_4cVO6EP_m0joQ,Dragon House,PA,39.9503586,-75.1615836,4.0,5,0
t03mAErURyb_wsZuy7lo5Q,St. Philip’s Plaza,AZ,32.285634,-110.94289,4.5,19,2
mjfCi5RzOab2i3oIS7MqnA,Casa Honduras,LA,30.0283329774,-89.9928790703,3.0,16,5
Fbq_tc6W5uNmQNrInXpd5w,6 North Cafe,MO,38.6204937228,-90.5252278585,4.0,91,2
wDwK7Im_rXO5nVeQn4lc3g,Hot Stuff Spicy Chicken and Fish,TN,36.047285,-86.676227,3.5,129,3
AFIkxCPqO7613NHEIL8abQ,Heritage's,NJ,39.758093559,-75.3556783333,4.5,5,4
x6kJFqKHkqtQdmZH3B0GSA,Whitt's Barbecue - Hermitage,TN,36.2138107457,-86.5973552091,4.0,9,5
agTcS5LYZJe4gNiXK6nNkw,Buca D’Oro ,PA,39.9470772078,-75.1541655511,4.0,5,0
Xsvi9wYhD7u5XrK2EKDd8w,Five Star Pizza,FL,28.0481913,-82.3942796,4.0,95,3
z3MQ4dmYICABaayF66NV3A,Quiznos,NV,39.5571203,-119.7826597,3.5,32,5
Uq1o6DXKALmjdElXp4mEtQ,Capricho’s,FL,28.033191048,-82.4076666194,5.0,8,3
ypp08ewHqQ-zmdTnG8qOAw,New Dragon Express,AB,53.533629,-113.627752,2.5,14,5
51pgAUQ6aIdZEfSXiG39VQ,Prodigy Burger & Bar,IN,39.6361025,-86.1576094,3.0,48,2
laV1qL3qhGFOfkPbHo3SVQ,Joe Boccardi's Ristorante,MO,38.5223473,-90.4727923,3.5,40,2
qq4Zc5y76vfCxQQy4CLfrA,The Casino Grill,NV,39.5267893,-119.8125674,4.0,38,5
2rQFgavS-942RapZTBSBTw,Gullifty's Restaurant,PA,40.025857,-75.325628,3.0,270,2
s4VzQaUCrgwPuViQYOqC2w,Ranch House Restaurant,FL,27.9962535,-82.5670403,3.5,39,3
eaJCpC6IhYphj7bwCDHTwQ,Three Brothers Coffee,TN,36.1448084,-86.8122664,4.5,249,1
3bmrxhqVpB5XCg-4j6y39A,McDonald's,IL,38.5175290922,-89.9490435503,1.5,19,4
LPWkWjR-K21nikUxQtQNtg,Hardee's,IN,39.6507829,-86.1578281,2.0,11,2
lDodrtH6kNgSCYpxr_E3-A,McAlister's Deli,LA,29.9754518653,-90.1512057111,2.5,70,2
Zk_GdMMPgEfKUECCxAxvwQ,Pho Nam Giang,PA,40.0860776,-74.9648083509,4.5,23,3
_Co6_3dVnerzFLSe2s4W9Q,Bobby Chez Crabcakes,NJ,39.8996609,-74.9532997,3.5,30,5
K7rsFcHcO_LYrgWvTAik2w,Shep's Delicatessen,TN,36.1780018,-86.7508693,3.5,134,1
QMaXUlBsA0SLiYZOzDAjVQ,Nam Kitchen Express,AB,53.6001157,-113.4858681,4.0,13,3
ZpXZgnBrNodHH8pKpOK_Kg,Jesse's Steak and Seafood,FL,27.9381358,-82.2920736,4.0,267,2
5pCDh3Tq3WzQau79hfJbsA,Brooklyn Pizza & Cafe,TN,36.1193788,-86.748865,3.5,69,1
xXMVuzrWa9Eg3bSDXehODA,Musus' Kitchen,PA,40.1323375,-74.88436,4.0,6,3
rc4nXqvuHmqM5JDnKxS5LA,Key West Shrimp Company,FL,27.740791,-82.750265,4.0,32,0
hkh5iyDeGLNhu-JUQFRE1Q,Royal Sonesta New Orleans,LA,29.9557609,-90.0678872,3.5,492,0
89COhCW-cAD5-fTXPfXYTw,Strange Donuts,MO,38.612197,-90.320003,3.5,352,0
tUDZnYQe7aD2VU3Syia_RQ,The Nations Bar & Grill,TN,36.1556569,-86.849056,3.5,45,1
j8NhrBzy1op0BfVGdSOiXQ,The Creperie Cafe,ID,43.588937,-116.278166,3.5,131,5
UCMSWPqzXjd7QHq7v8PJjQ,Prep & Pastry,AZ,32.25552801,-110.94349236,4.5,2126,2
3Z59UMun90xRiSU1XX8rhQ,Asian Taste Inn,PA,40.170447,-75.073694,4.0,61,3
-Lfib0jjHweCly1-FLM_og,Sidelines Grill,TN,36.250434,-87.035458,3.0,39,4
kpK6SmxIiNoGPNhlEGiL4w,Trattoria Marcella,MO,38.597361,-90.300388,4.5,383,0
RG4FoRw0vjzrCjMl4Apk4A,Salty Shamrock Fishing Charters and Events,FL,27.7748077067,-82.4093934149,4.0,12,2
ZoV8kXQopyz24dJBlFByRA,Imo's Pizza,MO,38.6351181745,-90.202189855,3.0,10,5
YKpZ2Ml0NZoYZ5eb3r_Cdg,Valentine's Restaurant,IL,38.4242058,-89.9087975,4.0,30,3
sU0eYd56_QArBBBlULxQaQ,Mayfield Veterinary Hospital,AB,53.551715,-113.6100702,5.0,8,5
OIES_WhdNux3PmvSuPM-8Q,Toki Sushi,FL,28.0774196,-82.5059947,4.0,106,3
-kAaeJxXCtLNAo3DosoXXA,The Burg Diner,FL,27.7988788,-82.7003544,4.0,109,0
FOuKoFiRWDqV_asEJfDqDQ,Sky City Cafe,IN,39.7685515,-86.1677919,4.0,18,5
3_kZ2pDiKJLZ9kGKKOWqdA,McDonald's,PA,39.8658758188,-75.3417693079,2.5,15,2
1JxSgUivApwcRYFnXw23cQ,Natura Cafe Nashville,TN,36.1642022,-86.7789669,3.0,5,1
J1pqZt0WWCL8cOt0eixBEw,Alvarez  Authentic Latin Food,FL,28.2699738723,-82.4808749557,4.5,51,1
sqCUiy9gTgfROmjX6KOHXA,Rosa Pizza,NJ,40.2507665,-74.7783937,2.5,10,0
_zU8uJthn3o5swP0LmfuqQ,Dots Diner - Williams Blvd.,LA,29.997378,-90.241623,4.5,234,1
w0zKpH49tW6Y-b6ZJzKMFw,Chuck's Alibi,PA,40.061417,-75.0833451,2.0,76,0
bRhnVTfuxDchyFguyDzuDQ,Queen Sushi,PA,40.1061425402,-75.1469280362,3.5,76,5
tP9Sn0KzL2GzImUGchXYMQ,Ishtar Market and Restaurant,ID,43.5903599,-116.2375654,4.5,80,5
zQ4yPiqoyMtoohGpEip7zw,The Growler Guys,NV,39.4562814,-119.7774657,4.0,75,0
ZYlDRSuhC-97FyqsPg1KCA,Pacos Tacos Metairie,LA,30.004915,-90.188874,4.5,160,2
WZgfBnIvBZ2B7OWkyiOPUA,Raley's,NV,39.4841296,-119.7464043,3.0,27,0
_ReMedGR8eDM5AgdRK0jCw,Shorty's Breakfast & Gourmet Deli,FL,27.9519833,-82.829696,4.5,68,5
v5T1Q21TT1_S_aY_G8Mf-g,Mr. Baja Fish,AZ,32.2873778,-110.9657056,4.0,69,2
w0lcP2ngFaUpBGi5yzlYDw,Yah Mon,FL,27.9422145,-82.4629632,4.5,697,3
Y70T1eClNnw_PlBkr1IHqg,Panda Express,AZ,32.1342676,-110.9998502,1.5,44,0
eqNutOMnPqKa9QDAY6KfEw,J'aime French Bakery,PA,39.948081,-75.1608093,4.5,310,0
P7oAQxDu8rapFn8QY0nmyA,LesbiVeggies,NJ,39.893852132,-75.0719857,4.5,52,3
sfbg2kxnvKpmlIuCUas5TA,Lucky Wok Restaurant,PA,40.0342865,-75.1307075,2.5,6,0
Gg_9lJOk0I8HDOw-Vj8P5Q,Café Zupas,ID,43.6105374506,-116.1941686466,3.0,75,0
UGebrYgNZrMzbGbcI01JWA,Hiccups & Churroholic,FL,28.0645829885,-82.5057124,4.5,108,3
yP-93hQPe8q8a4D-HlP1dg,Rico’s Food Factory,FL,28.1789028,-82.743308,5.0,6,4
L3u4I6wHtwMQJ-ZtvfrkkQ,McDonald's,AZ,32.424583,-111.043025,1.5,36,4
K51bVqlGcpTMDK3-SDkBeQ,Panera Bread,TN,36.1457641,-86.6682195,2.5,80,5
pym7c6ZFEtmoH16xN2ApBg,Katie's Restaurant & Bar,LA,29.9730943,-90.0959144,4.5,1289,0
EjFp57Nd4bVgb5GNn-XnuA,Tokyo,FL,27.9969683,-82.5701668,3.5,155,3
cwSlDlrmK1qlOWH9zDuNKQ,Domino's Pizza,NJ,39.8953038,-74.9212882,3.5,24,5
9dGzGbNKLMP0_wOqI5GffQ,Jasmine Thai,FL,27.9213164796,-82.3168221354,4.0,195,2
CB7nXPd5h_YLzcgfDo2DCg,Mike's Breakfast,PA,40.045729,-75.11891,3.0,15,0
Y2MuQoT_SpfzZxjn5JY7Ag,Whitts Barbecue,TN,35.9148575,-86.8366202,4.5,14,0
Mnr3Qp-sPIpuIjKzENqxVg,Krab Kingz,MO,38.7284109,-90.2760008,2.5,18,4
AmnnsJq4Pz1jJUFzHwtsOA,Chipotle Mexican Grill,IN,39.912878,-86.134275,3.0,65,1
CPFKi2lZJazP6IdtCdDDyg,Coffeebar,NV,39.5090563,-119.8149981,4.5,676,5
CBfW6HPqKP-46zadC1ktVw,Osborne Bi-Rite,TN,36.1014833,-86.739948,3.5,6,1
5AOkxsg6UJQ_CoJTMBDUmQ,Ralph's on the Park,LA,29.983468,-90.098151,4.0,299,0
nGYXglmKHgUcovuTHIg6_A,Food Drunk Food Truck,LA,29.951066027,-90.0715321675,4.0,29,0
CS_GzUYlEPa6QHTRY224wQ,LongHorn Steakhouse,PA,40.1274771937,-75.4040751479,3.5,104,1
Jvmj49D0GGnvCpjN0LXqEg,Angie's Restaurant,FL,27.9654261,-82.796093,4.0,55,5
a7_KZUJknqRA4DHQ3j9ofA,Slowdown Grillpub,PA,39.8594186,-75.4271676,3.0,60,2
7enJKZ9W2Vkq62ryK28taQ,Brenda's On the Causeway,FL,28.0512415718,-82.7872824669,4.0,62,5
gABEjWGwhojrub_tXqE2uw,Global Quesadilla Company,MO,38.6249339683,-90.516998,3.5,146,2
siwG4ZM7RjUDO52DI84m3w,Ray's Vegan Soul,FL,27.7676008,-82.6402915,5.0,5,0
7lwe7n-Yc-V9E_HfLAeylg,Pub & Kitchen,PA,39.9456566,-75.1747733,3.5,615,0
WtvENhqvWpjQtfe0OvUwSg,White Castle,IN,39.7887342,-86.1596367,2.5,20,5
Y2jDVmMpRzQRg6HkNvQc8g,Smyrna Cafe,TN,35.9416454189,-86.5283457257,4.0,184,3
o4_cgIKWgvJ09TZeSzARmg,Quality Pizza,PA,40.0509209,-75.094581,3.0,19,0
Bt7NBqA31uOI4H_hvasLLg,HORN'S EATERY,LA,29.9653626508,-90.059115658,4.0,597,0
UNRqCfwvvcU7jdbvExbhDg,The Grog Grill,PA,40.0226217,-75.3202699,3.5,125,2
5m3ND7lNNd6zo-bNQGoXhQ,Three 12 Sport Bar and Lounge,PA,39.9499452,-75.146352,2.5,33,0
pTpZS84EQhvZaxhq6SSWNw,Petite Clouet Cafe,LA,29.963326,-90.0454062,4.5,18,0
Ims_IgNKoDts2FdFNROQJQ,Los Machetes Authentic Mexican Restaurant,PA,39.8812654,-75.3080321,4.0,55,2
7J81xJFlMM244_f05k2egw,Hammerheads Bar & Grille,PA,40.0374692,-75.0417837,2.5,15,0
MiMRlsXOpHJMSTDAuw8s1w,Su’s Bowl,CA,34.4129239,-119.8573375,3.5,18,0
lkJki8fwC_RX9819nzfkCA,Supremos,NJ,40.0496068,-74.8990296,3.0,7,2
8sakdo8WkCjhKj3Q4hhvSA,Firehouse Subs,MO,38.5929525,-90.5456403,4.0,22,2
Tl24lMv2aCuLs4u45NquJQ,Lamberti's Tutti Toscani,NJ,39.8892184,-75.0168699,4.5,163,3
9XkgYvXhYibe85V6mNE_TQ,Winners Bar and Grill Nashville,TN,36.1495917,-86.7968607,3.0,102,1
47PQER5Q4OVmQhVZGE5nJg,Mexico Tipico,IL,38.5987159,-89.8081851,4.5,26,3
DW4ST1K1QWMangu5pUROSQ,Pop Inn,PA,40.285725,-75.208165,3.5,45,5
wuv3jE5Lc23TcfC70qu-Mg,Subway,TN,36.1512071078,-86.6256467248,1.5,8,5
5fqP38clcV-paOJL74SuVA,Submarine Gyro Town,FL,27.9822819,-82.3734122,3.5,12,3
bN7KQSVbEmRVJnQEkl3vkw,Nicks Gyros and Subs,FL,27.9958027,-82.4213829,3.5,29,3
oBhJuukGRqPVvYBfTkhuZA,Square 1682,PA,39.9508011,-75.1686108,3.5,385,0
6NEUgs0UGi-sHKYFH7T-bA,Taqueria La Calpeña,NJ,39.9488597,-75.0882396,4.5,11,3
iJn64rU6vapSp8uTjmshcA,Popeye's Louisana Kitchen,PA,39.9172916,-75.331789,1.5,8,2
y3RXPIuqr5Q0lId1K9Ai2A,Burger King,LA,30.0055382373,-90.2322953148,1.5,19,1
zoAZydP_v380Yydf-2u3hw,The Mobile Bistro,AZ,32.2196564,-110.9700832,5.0,5,2
RdCkOekwvalnr6krftX46g,Fratelli,PA,40.214962,-75.143244,3.0,8,5
LAOdChV60GwEJHE7UwDKyw,Frankie's Deli,FL,27.9898789,-82.7563766,3.5,26,5
WLLmkBjtN8mr2vWTU8aaCQ,sweetgreen,PA,40.0888477047,-75.3892213351,3.5,91,2
C1QkJ4s_p3hMTrvOgM7ssA,The Enerjuicer,FL,27.9451157,-82.4978944,3.5,122,3
kgeiJzWSiXPnf-3wx7LHIQ,Panera Bread,ID,43.6361060294,-116.3547924344,3.0,81,2
eL673KqwAGpJQ4z-MAaZ7Q,Kokoro Ramen,NJ,39.8893026822,-75.0162957925,4.5,62,3
dEpvByPMG0BZ3E9JOem0NQ,Boston Pizza,AB,53.3628181,-113.4172044,3.0,10,4
TPkwQL43WA79mQ7Gnx9XQw,Domino's Pizza,MO,38.4869389,-90.3818798,3.0,12,1
7sKfrJmjG6unAQeWdQUe2w,Franzone's Pizzeria & Restaurant,PA,40.026465,-75.2244958,3.5,110,0
6kAXOzE7fqaBZINQV_-_mg,Kien Giang,TN,36.148333,-86.862353,3.5,326,1
WO5nr-4sjVs506BdCLL0aA,Kuchi Sushi & Hibachi,FL,28.030876,-82.541377,4.0,319,3
0xe81EigRw_b5W8tg0Ca6Q,KFC,FL,28.2771645,-82.673909,1.5,19,4
JYDd5sgn18DqDnTnq_tBRQ,Las Trojes Mexican Restaurant,NV,39.5885582,-119.7254333,3.0,106,2
_eUOqZZxwQrk7Cx2RAeghg,The Port of Peri Peri - Ballwin,MO,38.5965958,-90.4862273,4.0,25,2
14ZGwnDyydXdSBsLXpSUrA,Vientiane Café,PA,39.9483087,-75.2178905,4.0,304,0
k4gi0CDSas1glukpWHtoFg,The Flying Bridge,FL,27.730499285,-82.7449756747,3.5,62,0
7kko-9WTh53VZ_PmrffrSQ,Tasty Tom's,AB,53.517857954,-113.4884910012,4.0,67,0
42IIF87kg1Ay4AeS6r9SOQ,Pizza Hut,IN,39.7971751,-85.9901685,2.0,19,4
NAbdYpm3Hn_XnhSQftsJNA,Wow Bao,NV,39.5415900844,-119.7357798368,2.0,13,2
ewhGlOAo3GYriPFnLV004g,China Star,FL,27.7524013,-82.6614647,3.0,6,0
f31Cl39cl2T-CwwqZoMGkQ,Ray's Subs,NJ,40.2519978278,-74.7763186544,3.5,39,0
aq26RY75PlTNsviW6wUC9A,Hooters,AZ,32.2205997635,-110.8379714749,3.5,109,1
-zsvmEbkd-K9K2DAAKqiEQ,Salty's Island Bar & Grille,FL,27.969764,-82.829336,4.0,599,5
MzBXuXfCZi2VJ-ZKPAfdvw,Auntie Anne's,PA,40.1403336543,-75.1235461638,2.5,6,5
1CRaUspmxoegNBUnLkBAyA,Li Chinese Reaturant,IL,38.5443273542,-89.9841293629,3.0,27,4
hn3Rg2JrhQoDJBEhrpuwWg,Granite City Food & Brewery,TN,35.933616,-86.821486,3.5,356,0
71q2UD1A7KL2q4AA8mPobQ,Urban Eats,MO,38.5808008,-90.2410679,4.0,88,5
iyI-PmAhYEktWu81_p3ukw,Subway,FL,28.146935335,-82.7414761083,3.5,6,5
YgMZm_alGFUeQO4hz9X9VA,Earl's New American,PA,40.3475793,-75.0298548,3.5,135,3
_4VrDSmqabnuqwaQlOI6-w,IHOP,MO,38.79529,-90.34097,2.5,34,4
5XXFFeHDa-lb-OcXGDKXpg,Bartaco,PA,40.0883652258,-75.3884107669,4.5,313,2
4ib9kGHlwqWPalWjh-dZhQ,Yama-Taiyo Japanese Cuisine & Sushi Bar,FL,28.09319,-82.771565,4.0,49,5
5R6YO6K9PkthkTbXqV9slQ,Sakura Japanese Restaurant,DE,39.7229310921,-75.6620611,4.0,86,2
-TRXiliBZ2O2_BKyKQ32HA,Gyro Shack,ID,43.6562033682,-116.2585391,4.0,67,3
uxJRSGuOpTv4g7U7gWANyw,Pizza Hut,FL,27.9179833,-82.734651,3.0,9,5
TO_Ha3HG_qETaDN8-yOVxg,Penllyn Pizza,PA,40.1708178,-75.2453082,2.5,23,5
wn1rS1Ga9xZ1BIMffnJW5A,Applebee's Grill + Bar,NJ,39.748982,-74.990204,2.5,39,1
rLSnt_I-JBH6f1kQ2j0uFg,Aston Pizza Company,PA,39.8723666123,-75.444536709,3.5,34,2
aFOXqgKSeSCvq4UU0rPdHA,El Manjar,FL,28.0153977,-82.4855275,4.0,17,3
H3p3b8nbB3OtIfQyQGKDkg,Eet Gud Bakery,NJ,40.228034,-74.709329,4.5,78,0
9XpU6r6ATXSWYfbU7kibaQ,Passero's Coffee Roasters,PA,39.9542012,-75.1674658,4.5,91,0
8QJTzIaR5FceGds8HBSIig,Barrio Brewing,AZ,32.214412,-110.9595118,4.0,611,2
fRdJbbQk05UctAAX8v4uFA,Marco Polo's Pizza,TN,36.1875154,-86.8213698,2.0,28,1
4LuzS6VevvwSmB71KbGyVQ,Waffle House,TN,36.168351,-86.5146751,3.0,29,5
cAqNakznheceKWMs62lUKg,Fitlife Foods - Wesley Chapel,FL,28.183548436,-82.3545080423,4.5,18,1
UCCc31J4N8Y57RuzmInjyw,Chipotle Mexican Grill,IN,39.713921,-86.355953,3.0,35,0
4gaTCKPPSooQ7OKHkhZwiQ,Crisp Chikn,PA,39.9390834669,-75.2722532,4.5,19,2
jz-A6Gq1pM-esuAEKqqSqQ,Raising Cane's Chicken Fingers- Arnold,MO,38.4403418,-90.3734194,3.5,26,1
g-0-_hPz-yr_f4gBFbX2Ow,Kim's Cuban Sandwich Shop,FL,27.981183,-82.29767,4.0,39,2
Zm3X8i9GsYaxdWHlI-WQwg,Eleven Cafē,AZ,32.2226061406,-110.9721927976,5.0,21,2
ppV8AwESFjlG5FSRXdvtyg,LouVino,IN,39.7748769,-86.1499074,4.5,236,5
ju4YP8SLdR_BmWr_-Xh83Q,Phamous Cafe,CA,34.428242,-119.876408,4.0,220,0
gEJ3a8-m6VB827e6GHromw,Sauce on the Side,MO,38.6271043879,-90.2566847205,4.5,232,5
i7LerGjkoxNPrlJ1oJpbXw,Red Lobster,PA,40.178285,-74.880187,3.0,77,3
Q4q9xFDxErreYTMrRshP_Q,Tijuana Flats,FL,28.01992,-82.732923,3.5,89,5
qdpdUjdkEUpzYDdce2yZng,Plaza Deli,CA,34.436708,-119.748708,4.0,188,4
z06yuwkwWjgXAxnlZKg1yw,Popeyes Louisiana Kitchen,FL,28.069558,-82.433814,2.0,28,3
jrXGF0GlXZZgA__9PSPt1w,Clancy's By The Creek,NJ,39.8756754,-75.1207411,3.5,21,3
Jr90GZ4uthyYp7407eyutQ,Sea Dog Cantina,FL,27.7414706131,-82.70766,3.5,63,0
Ah7mpTWpdflSaCZHKHx8Dg,Yori's Church Street Bakery,PA,39.9595399,-75.605789,4.5,86,4
5jXiZ23pb-xf457uNM2yZg,LJ Thai Sushi,TN,36.1413036,-86.8822837,5.0,8,1
Yl4Am6NhqWo_YMmo1SyU5A,Domino's Pizza,PA,39.9453395,-75.238934,2.0,5,0
EQ-TZ2eeD_E0BHuvoaeG5Q,Milktooth,IN,39.7591692208,-86.146494347,4.0,1379,5
oqP1oQEycpp4J6u5YebRoQ,American Social,FL,27.9387071894,-82.4547521292,3.5,768,3
ld1b8y_PHH6Mn_e7T0u04g,Gachi Sushi and Noodle,PA,39.8946117,-75.2292952,4.0,95,0
c6xp1swmd-_P87kt3xggDA,Taco Bell,IL,38.888951,-90.17685,1.0,16,1
C3Nc7EUqo64jRPWPn6vY9w,Chipotle Mexican Grill,NJ,39.9274404658,-75.0318763641,2.5,73,3
E0KwLVaQ-uKEjJl3j_VAGQ,Firehouse Subs,NV,39.5415757,-119.7366051,4.0,87,2
yOb98TKNFfKLt5PCLJI8fQ,Island Treat,NJ,40.0696085,-74.8541512,3.5,22,2
uAbUh-mivr8AFoEbk-gANA,XT Munchies,FL,27.999241,-82.4508628,4.0,5,3
VnQBbu2oco57NB36kFhC2w,Café Cuba,FL,27.895823,-82.246869,3.5,42,2
jnZYD2UCGziWwGsUxybkFw,Daredevil Hall,IN,39.9119165358,-86.1184757185,4.0,184,1
ffvS2BlFwQra5FTPNk5N2g,Arber Cafè,MO,38.5690797,-90.2866399,4.5,18,5
iF_92LcvfJfrtwjHWhVb-Q,4th Street Pizza,FL,27.801446,-82.6378064,3.0,67,0
3gTZAOmML02T1L5gYIHYqQ,Kabsa  The Ultimate Cuisine,AB,53.616357,-113.431281,4.0,24,3
3yJYL99Dmq0ofHkcqyPtjw,Philly Dat Up,LA,30.0163825182,-90.2495574206,3.0,12,1
r7sU7DuN2wM1OyjLHe6_pg,Hungry Howie's Pizza & Subs,FL,27.9956217,-82.4366429,2.5,12,3
tXfeVYKJq-bGPx1sjHOMHA,Village Inn,FL,28.1866210597,-82.4428262548,2.5,61,1
kdboJGRQZXuKYLIFMvsoJw,Boise Auto Repair Mobile Tech Auto Repair,ID,43.5836172562,-116.2024007625,3.5,15,0
zVmW-ohNzhOPiBIeUPL62g,Goody's Pizza,PA,40.0274889,-75.0611831,2.0,25,0
3dGqTD3xCOYjUtmusTJpeA,Glenmoore Deli,PA,40.0890174,-75.7720883,3.5,9,4
M2m_SM9GpIbct2a_hOGzag,Daily Dish Events & Catering,TN,35.998157,-86.886735,4.0,47,0
MpkCQTOV6D3XGRPbtQPj5Q,Pho 36,IN,39.7631044346,-86.3519488545,4.5,236,0
KcTLv46oThYuSujjb4EfEA,Asian Cafe,PA,40.1305452,-75.5505053,3.5,80,1
dhKHcuHvwgB5qAAYencsFw,Kings Garden Noodle House,AB,53.49461,-113.576889,3.0,15,5
Aphp-EdFass877c-sWp5eg,Woodbury Station Cafe,NJ,39.8363431,-75.1500005,3.5,145,1
_E0WPHfJEYmwOUCAj-Jq1A,Western Village Inn and Casino,NV,39.5344459,-119.7344361,3.5,266,2
B03ajYBGDkZrIDB9lRTwUg,Valentino's Ristorante,TN,36.153864,-86.7976111,4.0,160,1
MGNAYydr7SxPMDgFlnZ7sg,Little Caesars Pizza,PA,39.9139475,-75.1520299,3.0,10,0
P3qii5-Hch2tDd1e59znXQ,Franci's Cafe,FL,28.0408259,-82.5264812,4.5,34,3
N44roXfLNkBdpINQDjEFOQ,Carisilo's Mexican Restaurant,IL,38.695337,-89.9666906,4.0,65,5
KBsLYznLfnJEY3RIBUZe0Q,Kei Sushi,NV,39.4785657157,-119.7867159918,4.0,357,0
yWUmFHfZEV6nnF2IFXn4nw,Prime 55 Restaurant & Lounge,MO,38.6549453,-90.2962379,3.0,67,0
k3sED9tpGEOtzhGxvcxTrw,Izzo's Illegal Burrito,LA,30.0046134,-90.1804121,3.0,147,2
MYMLQfzRv8x7aO-bv9vpFg,Five Guys,ID,43.6139398936,-116.2053884805,2.5,36,0
CxoRg-ZcXdpqXWmUJliYog,McDonald's,FL,28.3316185901,-82.6584090292,2.5,28,4
zOzEoK5JvJCA244kYR7Prg,The Bro’Kin Yolk,AB,53.4446871,-113.4901993,4.5,8,4
0e7U3DahOeJsT0brY4n_uQ,Pra_LEES,LA,29.996745400000002,-90.0602898,4.0,22,0
XYaOXB1i1zT2zAWreYbX0g,Blue Collar Coffee Co.,IN,39.7790868,-86.1433955,3.5,19,5
a24bmNPatJARqO1H4QnWgQ,Blue Quill Chinese Food,AB,53.4604772,-113.5313926,3.0,26,4
la1k3Qq-cUBZrTXyElb8QA,Panda Express,MO,38.636278,-90.348028,3.5,7,0
_rkjLrft2ZgHcLBLF9amXw,Uno Pizzeria & Grill,PA,40.1345642784,-75.4485799227,3.0,138,1
1c6wVkPI_v765N7l_la59A,Santucci’s,PA,40.0322167,-75.6796171,3.5,9,4
uGO0efY86PV-pw9iBxdxTw,Home Depot Hot Dog Cart,PA,40.0816399,-75.3854846,4.0,8,2
9jSYRT9jmXlVp0owgqKa5A,Old St Louis Chop Suey,MO,38.811718,-90.298623,4.0,12,4
wXBAAafoiZ4Nty2ajuBtfw,Subway,IN,39.8843597233,-86.0679047452,2.5,11,1
mTeNbKb9idbGoKJswtU_mA,Sarappos Pizza,PA,40.1356276,-74.9422493,4.0,25,3
YRWRq25_XCUeeqSlK1QZLA,Wall St Pizza,FL,27.9475693,-82.4551823,4.0,21,3
zTp2lpm3z5tVk62rA-pCdQ,Rooftop Garden,IN,39.7521667,-86.1396658546,3.5,60,5
HKLFG2qKkd5X1IyfwYlYqQ,Chubbie's Fried Chicken,LA,29.9320808,-90.0030653,4.0,70,4
Qkiz7nFYML7sJBFPO7pNaw,The Munch Factory,LA,30.0273794,-90.0387422,4.5,21,0
y8R6_RZsBO-b__bJaQjuaw,Factory Donuts,PA,40.2340222488,-74.9426154439,4.0,34,3
oCATFtmf0u9m0kj1Bdr5GA,Nicos Mexican Food,AZ,32.1995400199,-110.9078088775,2.5,15,1
gLaxSkjWzt25hybkaKwQcA,Slim Goodies Diner,LA,29.9230437,-90.0882019,3.5,520,3
ShMMSvD_xxf3qfy70T2MrA,Joe's Pizza,PA,39.9807964312,-75.3618657847,4.0,30,2
j6zWZyXsvEZvNO4wcz_oaQ,Stoogez,MO,38.592324,-90.52617,4.5,8,2
6Vnoah8cca3KC4CdSu-eaA,Bubba's Deli,MO,38.604407,-90.3041,4.5,46,0
jnge13lFtiLGXQEo5NwSYw,Sucre Table,FL,27.9444151,-82.5116072,4.5,67,3
pFtvNuoUppn9GYx0_ZsW5w,Subway,IN,39.9102068,-86.1833818231,2.5,6,3
YGdUUAqeRT5Z7fYkpevEyA,Porterhouse,ID,43.688867,-116.35483,4.5,65,4
5Ce3lZksYVkCbrihqylVHQ,Sushi Nara,AZ,32.222552,-110.788132,4.5,159,1
fr2qDm_mY1afIGMvqsKUCg,George's Wings,PA,40.0643044322,-74.9868814021,3.5,50,3
76xVA7wmqKLURF0tN82N5w,Bar Avalon,PA,39.9611607,-75.6033724,4.0,107,4
ut6fi2W2YaipNOqvi7e0jw,Upland Carmel Tap House,IN,39.9569253992,-86.142973568,4.0,244,1
Cx3G-kw4kYtlcig8yG7fWw,Burger King,NV,39.6390681642,-119.7106055823,1.5,57,2
GOSVLhjUT6TnrPhkkmDOpw,Vineyards Cafe,PA,39.969939,-75.163026,4.5,192,0
6UuwB1bcTSkq2GX77M926g,Wingstop,FL,27.9817738,-82.3001788,3.0,5,2
kOHcpCZQd4uNp6G2uE8o2A,PrimoHoagies,PA,39.9209271,-75.1733058,4.0,43,0
ELJcgId3RiCADVIT5QbUTA,Hyon's Seafood,PA,39.9350405,-75.179381,3.5,5,0
h85b3MFPWyaopMBy8DpBpA,Ron's Caribbean Cuisine,PA,40.0407573,-75.1448014,4.0,142,0
G6EkKOLWiOw_8G7olgvalg,Nicoletto’s Italian Kitchen,TN,36.1368318853,-86.8029680469,4.0,37,1
L5LW_wN6Z0JV_vKe2jnsBw,Wendy's,AZ,32.3454644454,-111.0135447675,2.0,21,4
X8k7N03buo2bBbUUfcAltQ,Taco Bell,ID,43.59716,-116.39233,1.5,38,1
D7Os2-9ApTGmNyzidqfwGA,"The Ritz-Carlton Spa, New Orleans",LA,29.9550178,-90.0709905,4.0,66,0
YovYgTM4ck3TJzi6XmRMZw,DC Cafe,NV,39.4149235,-119.7554975,3.0,10,4
26g6EO9eqWVsA92yomXKpw,Yannis Family Restaurant,PA,40.240921,-75.3037724,3.0,25,5
lpfrjbjIWC0BNZThaSDMLw,Simply Thai Restaurant,MO,38.8015155,-90.3111042,4.0,85,4
_v3DcLatG70adfYzWTd-CQ,Pacific Health Foods,CA,34.398436,-119.5187939,4.5,97,3
FtkYGVPVCRuuhQhYJBSVQw,Zimmer's Seafood,LA,30.0083429,-90.0644403,4.0,81,0
RyndNvh5DEsywX76cAkpeg,Long Hollow Pizza and Pub,TN,36.3222792,-86.7031195,4.0,90,2
ErFFv3yCa9NnJ_x0hBPCtg,New Asian Village Express,AB,53.4853579741,-113.5143256187,4.0,8,4
w_SsLvj6Xir_B4OQv6v8OA,Honey Baked Ham Company,IN,39.9259065566,-86.2273496389,2.5,8,3
nnZIsmpIQnuQY5S-MoGyvg,Baguette Deli,ID,43.603511,-116.245104,4.0,207,5
k9A4tAmei12tLprkrNPkcg,El Pollo Loco,NV,39.5321041,-119.8640278,3.5,54,3
AgN2wYfkqbHGvWN3CNdydA,Buster's Pizza & Donair,AB,53.3969781497,-113.5297982796,3.5,6,4
NKnwvuJygWPC42qycr6Hwg,Mano's Po-Boys,LA,29.981498,-90.2117653,4.5,77,1
7KFWWjzHOSBl9HDVXkyusQ,Wawa,NJ,39.8929548,-75.0912428,3.5,16,3
tW-hptQp2G8ShB_In68InQ,China Spring,TN,36.1204513203,-86.7774219494,3.0,28,1
2va-BK-z06mmPkSjNAJX0w,China King,PA,40.2284736,-75.2820167,3.5,42,5
FYIL5duVgc9eLyYw6hobmw,Ellington's,TN,36.1648001,-86.7799287,4.0,107,1
CJzVNnmSG-f8zVCBJDam8g,Gangnam Street Food,AB,53.6017805733,-113.4471042407,4.0,5,3
5Eq-hxUIIjZTHFnpZJhgQQ,Tom's Corner Grill & Pizza,PA,40.0406177,-75.0438084,3.5,11,0
-y5vYOsyL4bSFxeOtQtYbg,AJ's Fine Foods,AZ,32.3244248352,-110.9316140628,4.0,258,2
nYRFGR2C-OOhRvO8rvI4qw,Mrs Marty's Deli,PA,39.959999486,-75.3536066,3.0,79,2
NmzXH-HdWp-Sxdfnw3imUQ,Emoji Sushi & Teriyaki,PA,40.129672,-75.1169336,5.0,13,5
JwaF-4Md76jgIHFK-ixwnA,Sally Starr's Pizza,NJ,39.778436,-74.87637,3.0,14,5
at82YGuTKWrVyY3lPHh7eg,McAlister's Deli,MO,38.602781331,-90.4377430103,3.5,34,2
eF_ZRFPS4QDHiCNPJ_Cl6Q,Generations Grill,IN,39.7175065,-86.0319452,3.0,10,4
y3iKFTk_sgIXCT6fNcBn_Q,Chili's,FL,28.0550259,-82.4280458,2.0,114,3
LRGbuufLJqxsDYsY7_Gx6A,Wendy's,FL,28.0236,-82.5826138,2.5,13,3
BneXfQCiGY7yBiumOe7GCw,Rilling's Bucks County Bakery,PA,40.1847851,-75.0583376,4.5,28,3
afsP-p_pr4ikrboB5MtUzQ,Los Compadres,PA,39.9553865,-75.1910637,4.0,12,0
WJeipqBVdQmVhnYrXlLb7A,Sam's Bar & Grille,NJ,39.7891409,-75.0562241,3.5,16,1
ShJs6GQRJ7p_CaI1scxMkA,Pizza In & Go,TN,36.047596,-86.6761529,4.5,16,3
4NidY2tw42l6iobbtai_kA,New Orleans Social House,LA,29.9450631,-90.0672652,4.0,136,0
i45WZvp-Sg7MlELrHzlUxg,Crust N Fire,NJ,39.9787556,-74.8779393,3.5,94,2
gNqYUPKGfZJycaZhCsi7xQ,Marty's Cafe,FL,27.9764631494,-82.3297235912,3.0,14,2
Im5XYJ8jP3s85Lna48HcWA,Pizza 73,AB,53.5999605,-113.395716,1.0,6,3
Iw7uhUS9D5gXESPr_DVHaA,Belgravia Hub,AB,53.5125175,-113.5285441,4.0,27,0
tj7aaF1AhAyiepySMHPK3w,Taco Bell,IN,39.693359,-86.149027,2.0,23,2
tVxL-Ygzwp8NMuxwvNmWRA,Los Potrillos,PA,40.0123759,-75.1124633,4.0,17,0
ZoRlLcEsxrzfumd6wHa5Jg,Chemin a la Mer,LA,29.94896281,-90.0639061829,5.0,9,0
fT9j_qm86U0I9ZbJYccNhQ,Tacos Don Pablo,IN,39.7136216692,-86.3628355037,4.0,10,0
T5f-IRQWQYgFQbgO_kVkvg,Northbrook MarketPlace,PA,39.912781,-75.684904,4.0,60,4
k-Wb-2Y2RFGlaY00_Hm8Sw,Slice Of Heaven Pizza,FL,28.1790012359,-82.7431934248,3.5,66,4
wzIN0IqcNOnUjwuzRoG9AA,Sweet Soulfood,LA,29.9737325598,-90.0807557021,4.5,385,0
n2HP8fenpzI7eg6TRDj4lw,Pizza Hut,IN,39.7994921703,-86.2674245238,1.5,32,3
89VqFJf3COkgb6dL2AqXhg,Honey Baked Ham Company,AZ,32.3353660148,-110.9761994845,3.5,15,4
nFSqTOt1LZSHQQKQsUZiKw,Stargate Diner,PA,39.871518,-75.330174,3.5,71,2
KZe5kpIHWVuJl6WgNYzceg,Please-U-Restaurant,LA,29.9367378,-90.0776308,4.0,274,0
Ck2WcubwhTRc8bgYQyH-SA,Mi Cabana Restaurant,AZ,32.1726617,-110.9679231,2.0,8,0
GyNGss56OYoAdg7ANI5M7A,Warm Springs Golf Course,ID,43.5924270408,-116.1650920836,3.5,11,0
zG9-Ii9mea1JhnQTv4_DxA,Papa John's Pizza,PA,39.938622,-75.2719456,2.0,21,2
iXemjTj5TOByT1-cNTSaDw,PureBread Deli,DE,39.692037,-75.666564,4.0,64,2
X7YBx8CybmIPymZ0ThCmng,Ninth Street Deli at Howards,MO,38.6005985,-90.2143307,4.5,128,5
62hyRsi4-6pskqkgZGst8Q,Avalon Bistro and Bar,PA,40.0215008489,-75.3187834471,4.0,22,2
wi4F4NUvxn7UWHvQ1Iiz7w,Annex,FL,27.7770193148,-82.6317201189,3.5,46,0
7wQEzj-0yOpLiANNLuUflQ,Deepwater Diner,NJ,39.691701,-75.484253,4.0,49,4
-K_FDDqmOt6hJLTOPgpnlA,Fazoli's,MO,38.7687386424,-90.5228420951,2.5,32,3
I2Yt74AzSQFfyQqgN7PSEg,Sheraton Indianapolis Hotel at Keystone Crossing,IN,39.9153605,-86.1084079,2.5,141,1
uNZvfcpwTNVxyPe9i1m90g,Taco Bell,PA,40.323843,-75.617467,2.5,16,1
18h9q-R5PdlSjkE1DGKHXA,The Lost Cajun - Mt Juliet,TN,36.1780039457,-86.5168370716,4.0,47,5
2gTnSpYBmg_5JubGpCtSQQ,McDonald's,IN,39.9276258761,-86.0256541474,2.0,41,1
0IG9w6YCkh-z5pnfSip6Nw,Tasty Noodle,AB,53.4642729002,-113.4947454929,3.5,64,4
txasGoZ1qB5toVaFiTbpmQ,The Brunchery,FL,28.127905,-82.3691115,4.0,88,1
4yKv0SEpuJDHECFinhifWQ,Quinn's Restaurant & Lounge,ID,43.595022,-116.214032,3.0,75,0
Cpl1-0iX6N7yauiJKhpXfA,Hong Kong Star Noodle House,PA,40.111675,-74.955319,3.5,50,3
YlEBQLfRHocJDn4gRlgczw,Brick City Eatery,FL,28.189368941,-82.540934119,4.0,114,1
d91RHJeZE-I7TaeQdBp6MQ,Five Guys,LA,29.9599745904,-90.1852179534,3.5,89,2
SOl2m-ZsAmnCuQGdMZeANQ,Red Pepper Chinese Food Express,CA,34.411727,-119.8567951,3.5,5,0
Dd_FDQPmNYWjj2NweX-3jA,Maria's Place,AB,53.570039,-113.468559,4.0,5,3
k6XrnjX2TBM_nDzD_XA9NQ,Terrace Lounge,NV,39.4972231,-119.8010219,3.5,84,0
1PYqegX1SruVbkCsRF-4lA,Opry Backstage Grill,TN,36.2177772,-86.6949403,3.5,195,5
YPnksHT2DQA0AhcxP6udxw,Corner Bakery,PA,40.08705,-75.395706,3.5,63,2
UhjfJpaAzgSYrTZ_dMMF1Q,Philly Diner,PA,39.8674080649,-75.3082371545,2.5,129,2
ZMJz4ekxrcZdhBcnK4B_6g,Kurry Shack,PA,39.9229257,-75.1525267,3.5,29,0
H-8Z-HoiattyFaZSv6M2XA,Big Heads of Holland,PA,40.175131,-74.984049,2.5,12,3
AEOd0wRdjeLIXb1usSp9hg,Kung Fu Noodle,AZ,32.2636803,-110.9431659,4.0,217,2
EBn3U4mpnIRLIy2lKuilRQ,Logan's Roadhouse,TN,36.1119137436,-86.766502,2.0,120,1
-e25gkrazUCBqcSdgsmHGQ,Papa John's Pizza,TN,36.0361266,-86.7877036,3.5,12,0
y0pfoNQOyrb98aEIdH6cnA,McDonald's,PA,40.2104139103,-74.7951225,2.0,20,3
kLS3Sth5HvO0IjrXCCvXxA,Wawa,PA,39.953351,-75.172624,2.5,45,0
sdWuLh-auc0nC2Jy6_26AQ,The Black Sheep Pub & Restaurant,PA,39.9484223,-75.1692901,3.5,339,0
SHk_eYKzIOPvgwvTThtXiQ,Romaine's,CA,34.4115477,-119.8439999,3.5,6,0
o2ETM4XZXENkzuAaYT2GIg,Sen Thai Asian Bistro,MO,38.631047559,-90.1941606669,4.0,181,5
ncxN9II-MeXRudUrE3GVsA,Bridgeport Rib House,PA,40.0991065,-75.3513976,3.5,135,2
1JHPRGTHrrSIcKDGzsXddQ,Logan's Roadhouse,IN,39.714395,-86.354627,2.5,76,0
1Pxg1AMf0rEn9QF__ZYoWw,Samurai Sushi,TN,36.1510902665,-86.8037759995,4.0,367,1
hr1XaVzp6htS41LjwKjIbQ,Stella Maris Restaurant & Hookah Lounge,LA,29.9594566,-89.9931219,4.5,78,5
NvMYRJ_wPJmt4FFsEF7O0A,Perfect Taste,MO,38.6556212656,-90.30247748,4.0,65,0
CtNglIJY2yp05rZpG9F3tA,Sultan Market,FL,28.0321886941,-82.4183867103,5.0,10,3
G6kRQylkjNNE-yUXM2muBg,Brandon Bagels,FL,27.9382531,-82.2973831,4.5,119,2
3OGzmGqWwsyGLkhnxrA9Pw,Gourmet Pizza Company,FL,27.937948,-82.484684,4.0,185,3
EDprNnmwty4XypvqgVZVgg,Dairy Queen Grill & Chill,IN,39.6941240485,-86.07954048,3.0,28,2
28XH9UYU-uGajC0Nz5Bwog,Dairy Queen Grill & Chill,TN,36.4880525767,-86.8650939269,2.5,7,4
Yll7kUVI7j0gArBMQKpEaQ,High Brow Coffee + Tea,TN,35.929464,-86.919329,4.0,125,0
iHC-f9m5EEOIJMXCW3bmBA,Swagruha Indian Cuisine,MO,38.713891,-90.4494678,2.5,35,3
CmDTNEVReN6CgE6ctlZhag,Subway,IN,39.6767013813,-86.3098830231,3.0,7,0
UwAqOh7QDJz9m9scQxH9iA,Panago Pizza,AB,53.4999118,-113.6296212,4.5,6,5
ajfBGoRGUzhD0fTXLENcrw,Asahi Sushi & Asian Grill,LA,29.8635757,-89.9964664,4.0,56,4
PwcYNxBGzefCM1ofAMZJ9Q,DK Donuts,ID,43.6219161,-116.2065136,4.0,56,0
AtYDSsVOZT8DLWCcTBqZmQ,Hunnies Crispy Chicken,PA,39.9491591674,-75.1671322221,2.0,5,0
3XirYkP9PJvVXIEDPNNXLA,Crown Candy Kitchen,MO,38.651334,-90.197874,4.5,558,5
9_m_iA3VAqGBJEW5XLc-5w,The Cuban Sandwich Shop,IN,39.906797,-86.2182121,4.5,506,3
3CsBRtDT5WOUu8IY0mHhXw,Slices Pizza,PA,40.0096537,-75.1954732,4.0,122,0
7l-j0MBJr8KR7Hzk4uaaAQ,Wingstop,LA,30.0045163,-90.1884469,2.5,87,2
xHdekRjTK93GR2AgtvrtgQ,Growler's Taphouse,AZ,32.3573574258,-111.1140279582,3.5,149,4
FYw5uf26ry8-MuPKD10z0Q,Josef's Vienna Bakery & Cafe,NV,39.4920598234,-119.8060837054,4.0,382,0
0CLCzdedGT2DPjkYM52Tqg,Brewsters Brewing Company & Restaurant,AB,53.5201345852,-113.5962501821,3.5,37,5
S5yNs8wzFRcJ6Qr7iobdoA,Paradise Jamaican Cuisine,PA,40.216635,-74.78161,4.5,19,3
v_k6TaygyFq1YkjdtwPWpQ,The Dutch Cottage Tavern,PA,40.2269717,-75.406862,4.5,29,1
fdqBP3kBrZHRHzQkoiNJ3g,Ho-Ho Chinese Restaurant,MO,38.77677,-90.529285,3.0,34,3
oHAAlU_Yts_avncJK0hJpw,Barro's Pizza,AZ,32.3540985457,-111.0903744749,3.5,116,4
uPVKWy0VeMMHMJ0V87nMMw,Rolynos Original Pizza,IN,39.7759919521,-86.2499258245,3.5,33,5
ZapDvyE7lJxVxlmeeKyjkg,Daisy Mae's Southern Fried Chicken & Breakfast,LA,29.9500396,-90.073689,4.0,267,0
cIohvIbTq6qN7god-sx1zg,Sea Turtle Restaurant,FL,27.720594,-82.73949759999999,4.0,262,0
59fWFpyDg01BTEH-Hh6jdw,McDonald's,DE,39.794113,-75.4673805,1.5,25,3
u75fYA_bwkfWK6yvdfveCA,Opas Grill,AZ,32.2280786,-110.9654562,4.5,36,2
1NCUTTp6rIyXpwUDVv9qOA,Lazos Pizza & Grill,PA,39.9727751034,-75.1789870874,4.0,176,0
Rply0vEJrwuAa1vOvJgTnw,ShopRite of Eddystone,PA,39.864913,-75.340133,3.0,15,2
byb88TuDmgiobijc0pAuog,Happy Ending Food Truck,FL,27.9216909,-82.116955,5.0,10,2
k3EQAQGptzHzl6oEoas61w,Ithai & Sushi Restaurant,FL,27.8730288,-82.7875025,4.0,63,0
to95MZH1XV_fNLOXNMZQmQ,Taco Bell,IN,39.911536,-86.219848,2.5,21,3
xkTjLbBC7uB-rAIDqAm-sw,Los Comparres,FL,27.995155,-82.48414,4.5,339,3
oR3iGLhTW3UiABNEhmMcUg,Taco Bell,AB,53.5416544,-113.4175072,1.5,6,3
oVlS3TqJLq6ogSo9tI_U0Q,Gasparilla Pizzeria & Growlers,FL,27.894254,-82.268108,4.5,57,2
ERl6OCSEIFBOqfjai_jIUg,La Parrilla Suiza,AZ,32.25642,-110.97746,3.0,125,2
Yv9KUZ-N3otoKUtToPPxAg,The Hattery Stove & Still,PA,40.3096366381,-75.1309594139,4.0,274,5
hRHhP3fhMy3LktPyQa3s_A,Landry's Seafood House,MO,38.6276882,-90.2089256,3.0,297,5
cXAKeC-EgVChIxhS7fscmw,Ghini's French Caffe,AZ,32.2735760993,-110.944434852,3.5,427,2
RY8I-VP7g-BMfGOSMA2lgg,Smitty's Family Restaurant,AB,53.4548546821,-113.4293917044,3.0,5,4
n6zEr09OC7WigrxfQ4rjQQ,Rickenbacker's,FL,27.8534777946,-82.4822765156,4.0,5,3
yYuRiXwKTRP46dsyMVstKA,Organico Pizza,NJ,39.8926492779,-74.9216213264,4.0,121,5
sjNVeNqhDjEFHoOybnt2ug,Meun Fan Thai Cafe,CA,34.441504923,-119.8230233788,3.5,157,0
qHCfhWPyb1GXpzq9Wk3Vkg,New England Pizza,PA,40.0400368,-75.0662936,3.0,22,0
Y1QKeVZSvhnAZnO26SK6QQ,Nordstrom Grill,TN,36.1065328983,-86.816454,3.5,33,1
jW4a3W9-UkFxpglHvo_Kqg,Meun Fan Thai Cafe,CA,34.401169,-119.721505,4.0,195,2
HLNtxaFvvHFx9whiptQzOg,Kalakutah Republic Grill,IN,39.8343073642,-86.2393748255,3.0,17,3
W15EwFMmF4I-YPV_HlevYA,Joeys Urban,AB,53.531681,-113.292961,4.5,7,1
yuJ-ww3yxr6_gs7Lcj7pJA,Black’s Blues,NJ,39.9281822,-74.9540302,3.0,8,5
ASEt7HnmxVXYr3fezrahCA,Ob's Jamaican Restaurant,PA,39.8406648,-75.3714984254,4.0,29,2
q61niB21oQPmZlO3wsSO7Q,Arby's,FL,27.8842992,-82.787684,2.0,14,0
8ihWBaqzn5hx4kwQm87GzA,Mawi Tortillerias,LA,30.0167047,-90.200741,4.5,50,1
OP-m-Kq-1aEWrrlaszFi9w,Ramble Pizza,PA,39.9793657,-75.1253492,4.5,19,0
prEEus2L3Xo01nOvs2MaKg,Main Street Bakery NPR,FL,28.2499926333,-82.7234616503,4.5,5,4
R0HjMCL_m5wjBeUpOXqzdA,Twistee Treat - Sheldon,FL,27.998621,-82.5828717,4.0,58,3
4fQPIhCh2bUJBZcxQlLGFQ,Number One China Buffet,IN,39.9627670692,-86.117717809,3.0,54,1
TDKBPcViJQDMrdUm6a9XZA,The Depot Craft Brewery Distillery,NV,39.5311073,-119.8096181,4.0,1245,5
XX2PSfT4xuHq0yuoPIge1A,Books & Brews - Zionsville,IN,39.9518148443,-86.2781691611,4.0,66,3
i7akkU95QVETwwX8D2qH-Q,Joe Gambino's Bakery,LA,30.006131153,-90.191617012,3.5,151,2
f_6cI4MdPem_48WgD1Ofcw,Clara B's Kitchen Table,IL,38.4749780415,-89.9908761308,5.0,5,4
eOeKgRKbs-iAsIEOmHTrYg,McDonald's,PA,39.9573732697,-75.2576498687,1.0,10,2
lT-RDsvFR21X1_5UhFp5Dg,Sue's Market,PA,39.946233,-75.1455404,4.0,9,0
lTqAGjcQHeY3eTXBTIcvkA,Frothy Monkey,TN,36.1733768,-86.7396448,4.0,45,1
q2s15GwZr6NdTH-HtSirsA,Speedway Eatery,MO,38.7884682,-90.403094,3.5,7,3
sjQyfgj4wUeVIRY0jYUOFg,Polos Social Lounge,AB,53.5579539459,-113.2708916795,3.0,21,1
mLNSOU8Ki0Fm09xd6ZKkcA,Timpano Hyde Park,FL,27.9370426822,-82.4760082753,3.5,380,3
SJIQFKTW6uUsOo29w9IHxw,Mambo's,LA,29.9566684,-90.0676513,4.0,1223,0
u1ELaa77voUfj-2GCOIUmQ,Fazoli's,TN,36.0807586,-86.722677,3.0,27,1
yPzni14snM06Kk5xLy6e6w,Wang Cai,IN,39.612678700000004,-86.1575896,3.5,31,2
7HuLn0qcyaM3yieKDu7aSQ,The Boyz Subs & Steaks,NJ,39.920343,-74.964441,3.0,14,5
Ppmdzznk7jR8YRyei79_Xg,Almaz Cafe,PA,40.1145214889,-75.3452384037,3.5,11,2
6nhKTMtbqY4NPr-QFxQNoA,Golden Corral Buffet & Grill,IL,38.574025,-89.9238064,2.5,38,3
mQvRi0nm84Www71d4qOheQ,Ekta Indian Cuisine,PA,40.0238364666,-75.3226478981,4.0,193,2
P_mujg3kYmFXSkGlMfAWCA,Quality Pizza,PA,40.2396061,-75.2798745,2.5,8,5
Ckn7S0CRWfC8w6gR7QJcRw,Chido,LA,29.9693606027,-90.0521436151,4.0,17,0
4ziM5sfg9PfPGTysDJPLLg,Masso's Water Ice and Custard,NJ,39.8415410182,-74.9637880549,3.0,8,5
X6GzniQjbm3YFWWwzDrBkg,Turmeric Indian Cuisine,LA,29.9072703957,-90.0618257695,4.5,120,4
I2xoIjcjxQHRg4-5msu8tg,Lima Fusion,PA,40.3636448,-74.9508796,4.0,33,3
TTUsGHhMch_hW03be2H0oA,Acajutla,AB,53.5515737992,-113.516133992,3.5,42,0
z3Zv5di2BEok__snpopeBA,Largo Golf Course,FL,27.8868646407,-82.8209533229,4.0,5,5
JvawJ9bSr22xn4R9oLvl_w,Desire Oyster Bar,LA,29.9555269925,-90.0681538393,4.0,1084,0
07i5EdI8v2FBhVV-rya8Wg,Pupuseria & Cafeteria Centroamericana,FL,27.9809251,-82.4855927,4.5,137,3
Ho0uAnaLL57On7enESYfeA,Imo's Pizza,IL,38.5932761,-89.9910013,2.5,22,4
yJqN-U9dUylYEwTr8SBP1Q,Grain and Berry,FL,27.799635,-82.335347,3.5,43,2
O8RzM_uLVEnDWEhX3whqtQ,Sonic Drive-In,TN,36.1083438,-86.9230086,1.5,34,1
Utc1KFuFQ-wwLiUTj5FvmA,Domino's Pizza,PA,39.9178706,-75.1869588,2.0,26,0
YdpDpp130fxiX2DUdQLSqg,Bardea Food & Drink,DE,39.742496,-75.54969,4.5,181,1
knA3b_WnHUJAyrIzzL9Lrg,Earl of Sandwich,FL,27.9656004,-82.5207316,3.5,100,3
Tdz-vjDRKI6LRzyaW3BMkg,Charlie's Roast Pork,PA,39.9315335419,-75.1496175304,4.5,30,0
Q5odYgHa-ApKOPVrEFmRQA,Centro Cantina,FL,27.960583,-82.441572,3.0,107,3
CR4JNMaB4FLBuqgyj79ZRQ,eegee's,AZ,32.13398888,-110.8383689,3.0,35,5
Qm9C0MiecSDJfkjkbkyoaA,Instead of Flowers,FL,27.8568498,-82.6487873,5.0,6,0
ABp0BSeiYty6EpVW2ScO-w,Fleur-De-Lis Nutrition,LA,30.0202011,-90.1113103,4.5,5,2
EP8aZWRSxrGgpp86cpXFuw,Mongolian of Eagle,ID,43.691703,-116.351951,4.0,45,4
iwlPkTBb2CtjD0oe-baXnA,Imperial Pizza,PA,39.914972,-75.309664,4.0,79,2
a8Q2bvUW6mAiws7xW7cS6g,KFC,PA,40.0288224113,-75.629475,1.5,45,4
0cB1kDuZCvSwpJrNdtQP8Q,Giordano's,IN,39.7681769,-86.1596387,3.5,284,5
b2IDM2SC0HkcflLl_nSTrA,Danny Boy Beer Works,IN,39.971541,-86.197146,3.5,187,3
oYzq49fG7jokPLQ38bFMOw,Hachi,PA,40.266182,-75.225904,4.5,258,5
zbvu8pRKcOQqdjqRGbncyQ,Cheddar's Scratch Kitchen,TN,36.3214422787,-86.5986949568,3.0,117,2
0YiRkVMR2cg17hk9u6nGhg,Elicia's Pizza,MO,38.5982131,-90.2367192,2.0,59,5
tr5Os7k3FpPz7NbWYwZa5Q,Vela,PA,40.3193924,-75.1322364,3.5,68,5
4JQ0hePJAlBepDzb20_32g,Beanie's Bar & Sports Grill,FL,27.704314281,-82.4425658705,3.5,80,2
6VOoXgAP2QCXHHFioUGeOQ,Rice King,IN,39.8396515,-86.0208823,3.5,24,4
7BdU02Hf1QQx5YE3WYGcxQ,Checkers,FL,28.0257155,-82.4598851,1.5,13,3
PEs5kilsGdB31jSt84ItuA,Chuck's BBQ,PA,40.0959133,-74.8593254,3.0,36,3
WqxxEbwfz1xXn89jYBuQUQ,Burger Baron,AB,53.570761,-113.4636068,4.5,11,3
46fEorqn2nVbxdclHdHdKg,Gentelin's On Broadway,IL,38.8902684,-90.183487,4.0,69,1
SjjrTfCxmLp0kJgy62sRAg,Maico,AZ,32.2071939,-110.9574162,4.5,102,2
bbEXAEFr4RYHLlZ-HFssTA,The Original Habit Burger Grill,CA,34.4355701009,-119.8247056485,4.0,329,0
9UVFBNXegnoW9oIfj5p7Kg,Capriotti's Sandwich Shop,FL,28.19161,-82.6132195,4.0,28,4
ZbsH2tXBjA-3v973ZsAZ_w,Parkway Pizza,PA,40.157789,-74.813116,3.5,20,3
cg4JFJcCxRTTMmcg9O9KtA,Ava,FL,27.936236,-82.482862,3.5,544,3
YT0A2VuGbOAkhvJmpPXuxQ,Texas Roadhouse,TN,36.331238,-86.62272,3.5,87,2
MaYb7qMN6BomP1zQGj3Wjg,Pi Pizzeria - Delmar Loop,MO,38.6550126,-90.2977613,4.0,633,0
FOtDhobe5Os8A7zSI_MvrA,Bayscape at Heritage Isles,FL,28.1473720692,-82.2964053601,4.0,20,1
X-Xx23pb9nqppl2KNpOMJw,Famous Wok,TN,35.9385971,-86.8197926,3.0,6,0
EMti-iNn83SGp3z6LngDWQ,First Watch,MO,38.736872,-90.39882,4.5,75,3
DdFfDwu5z7f24pp6e_q2XA,Roy Rogers,PA,40.1215077299,-75.7761088254,2.0,21,4
8LonS_bxNmCDk3FWiG9lzA,Tomo Sushi & Ramen,PA,39.951923,-75.144335,4.5,193,0
VgsbZSm5NRaDg2ds_FDBrg,Deja Brew Laugh A Latte,ID,43.6112994,-116.3910318,4.5,115,1
64i1xdiU1Wvo1Cuu0erFGA,Megu Sushi & Hibachi,NJ,39.8996708,-74.9532997,3.5,121,5
Iz3nG8ikhvLob4w8jLRlCg,Harper's Pub & Restaurant,NJ,39.8058881,-74.990509,3.5,29,5
fw9YFfQnoOKlVnUdUCT0OA,Mother Mary's,LA,29.9696163,-90.0939346,3.0,14,0
ioAcpe5KRvacB2lna-wdaw,Felicias Pizza Kitchen,PA,40.00806,-75.291783,4.0,176,2
qFodBzebw4Lywcffu82OvA,HotBox Pizza,IN,39.927734,-86.0104746,4.5,7,1
0wQCEcpZ57TmTm6EmEDsIw,Hendricks BBQ,MO,38.7713448,-90.4865593,3.5,572,3
EROSyhoWNCUH53NrDrsHgQ,Mary's Kountry Kitchen,DE,39.713166,-75.646243,4.0,50,2
Vo4NZBtF3mr6EJitNnq-Wg,Pizzeria Maki,DE,39.7797569,-75.5983935,5.0,13,1
ntewVyhJ6C8H0U_KkduioQ,Mise En Place Bistro,FL,27.9426726234,-82.4521769956,3.5,8,3
jLNxPH975elBwriKSjhw7w,Subway,IN,39.711916,-86.1187852,2.0,5,2
ASJH8IDBdX_f5yOX0XEfYA,Sam's Pizza and Donair,AB,53.523834,-113.639551,4.5,19,5
oThWInL6gUCt2d98fSIAfA,Chatham Tap Fishers,IN,39.9565163876,-86.0230119251,3.5,262,1
9DhjKaR2f9wKATnUvxBAgg,McDonald's,FL,27.923798,-82.323313,1.5,29,2
VaPj2Mpu0IpsUoisyTCAUg,That Awesome Taco Truck,TN,36.1805194,-86.7265483,3.5,11,1
iVegX9epKU8R0eRAEwQ6Yg,Burritos Grill Mexican Fresh Cuisine,LA,30.0387300722,-89.9769829586,4.5,75,5
xNWueX3uZjmixQUkY38GzQ,KFC,DE,39.7469589437,-75.5741865492,3.0,5,1
EQoeJ4o6re7EC4_EONXPlg,Chick-fil-A,FL,27.7977129,-82.3339698,1.5,87,2
wunF8CkjYkARgCbGwYRm3A,Driftwood Cafe,FL,27.7738335414,-82.6225407873,4.0,18,0
C8ge1djpXbFPyhzp2Yhzfw,Angie's Luncheonette,NJ,40.1492333,-74.7131766,4.0,72,0
Ydo8zFl1PaO--g5zwyVyVg,Loco Lucho's Latino Kitchen,PA,39.9531593,-75.1590984,3.5,40,0
2iQucreJtTqbEsLczhsgrA,India Sizzling II,IN,39.830272,-86.242362,4.0,169,3
yDriUh65Wpx1HnTmXln9nw,Subway,AB,53.5458546,-113.5165904,3.0,9,0
ZNXNmJV8fXu7dv1hqXeq1Q,Raising Cane’s,LA,30.0059929425,-90.0335249736,2.5,21,0
FZCj995CEL2G-JTiLC3Azw,Taco Bell,IN,39.80109,-86.15661,1.5,38,5
xruWHK8Z5N0JWyQubLHjgA,Potito's Italian American Pastries,PA,39.9210221,-75.1744313,3.5,88,0
TFnGJlA5l_HDdzGDkNTdTA,Smiths Restaurant and Bar,PA,39.9522486027,-75.1716919961,3.0,225,0
rDuopLmZ2X0uvwZpkqHGcw,Asian Cafe,PA,40.176079,-75.106012,3.0,14,5
aJTgc_HWNyM9gHDt__Lt4w,Johny's Original Pizza,PA,39.8869277,-75.3017107,3.5,54,2
sFtEbnWDtIADseyr8Lx6Qw,Spice N' Nice,DE,39.70981,-75.5498425,5.0,11,1
JE4gQjflWbg9eg3CSZvAVg,Stanley Service Bar,LA,29.9582117971,-90.0628599152,4.5,7,0
tl6CbSRA1txPHavvrQZfDA,Plato Latino,FL,28.0889550568,-82.4588084221,4.0,55,3
XfvJ2iEq0XmciWIJvelZZA,Cafe 29,TN,36.0896708799,-86.8761394545,2.0,11,1
-If0ps0QhOLCYVWQWs9RYg,Maple Street Patisserie,LA,29.9416242,-90.1295134,3.5,171,3
KkpAwKzn5olmxH2K2GauNw,Pica's Restaurant,PA,39.9686348,-75.5571687,3.5,141,4
zSEqhlaHqY8sIDxznturEQ,McDonald's,PA,40.171540527,-74.8515835404,1.5,32,3
Dl3aL50yuZmP1d4ucjHQWA,Arby's,IN,39.9265862,-86.1564567,3.0,16,1
o7cD_sDA-Evj3Oh0zeH9nQ,Asian Pho,NV,39.4772101759,-119.7649025917,3.5,194,0
FBEzhE4ABeiZTGGO-BTKeQ,Philly Pretzel Factory,PA,40.347018,-75.0306992,3.0,5,3
LFw9ptRD4_R8RXcZhZYmRA,Taqueria Mexico Tennessee,TN,36.069364,-86.7196702,3.0,10,1
RdDS9iOb5JJhFom1Ny4xUQ,Slack's Hoagie Shack,PA,40.1802431173,-74.8678294286,3.5,58,3
KE_oM4y1GMI3YMOnnqHqRQ,Subway,PA,40.1493823,-74.8239491,2.0,5,3
9Y5JPV0TFZpJXFokFxwewQ,Asian Chef Fusion Cuisine,NJ,39.9381487,-74.9150587,4.0,111,2
jjPX9UyeVpF8egi1Clh6GA,Pizzi's Pizza,PA,40.0241113,-75.3233849,3.0,21,2
M0_Yc94Yq-G7HV8rrl9fQA,Gaetano’s,PA,39.9604844097,-75.1977337,3.5,6,0
r31oH9nLDCLcSqsd3MdT1A,Wendy's,PA,39.9591768008,-75.3517154785,1.5,40,2
qWnjIYmfBdWUTelGor0rEA,Riccardo's Pizza & Restaurant,NJ,40.0202792,-74.8842229,3.5,19,2
eUXPZQSeZVpKHd0aRF3Rsw,Long John Silver's,IN,39.7595227,-86.2272436,2.5,8,5
F-vfI049swuwDR7HMOW1Fg,Red Habanero,IN,39.927974,-86.018796,3.5,198,1
ySSOZ_fz7wMhfjhWKzdR-w,Johnny Rockets,NV,39.5228351525,-119.7781323604,4.0,520,5
1FURjeGJi_LBXcJQg8eskw,Padaro Beach Grill,CA,34.4068326,-119.5485827,4.5,885,3
I5KZm-NnxYeEQsmp6nK5_w,Las Cazuelas Restaurant BYOB,PA,39.9698623,-75.1439919,4.0,338,0
_Xo-JzgxbMaDi5cvlfHpwg,Nidia's Latin Grill,FL,27.9942212,-82.220255,4.5,19,2
M4vYPpkKcPxfZvebDv0ugg,Taco Bell,IL,38.732182,-89.899187,2.0,10,5
6O6W8hHIMs-xJWT6yfh5qw,Suzi's Restaurant,FL,27.916168,-82.772327,4.5,35,5
jMZ56S8Y1t7cA1Ob-d-qeA,Three Muses,LA,29.9632273,-90.0579277,4.0,1165,0
RPLPto1ejkyE8vsGOV5phg,McDonald's,PA,39.9597931076,-75.2875122428,1.5,27,2
ulwns2OavT81v6zG-Sk6ng,Wawa,DE,39.69444,-75.598866,3.0,8,5
NnHfPMXbY7IQI24lcYXKiQ,Wow Bao,IN,39.9123675,-86.2025668,2.5,33,3
-yCrdNTk4RzUax2FJusa5g,Cajun Gourmet,MO,38.636484,-90.348024,2.5,15,0
HvFHRwDDu36nBGSyEv81WQ,McDonald's,PA,39.8423291687,-75.7296930161,1.5,13,4
yAEKaEvsCNxOYv1M1kiQhg,Olive,LA,29.9510796,-90.071576,5.0,76,0
WJN51928dvjYmaFw-zPKXg,D'S Caribbean And American Food,PA,40.000452,-75.1662905577,3.5,10,0
ToHu5wSC8LSMYigsSlkFfQ,HITEA,MO,38.6794186613,-90.5060517043,4.0,115,3
kYFJQDMHsubrwDfRpEfDTA,Lucky Dogs,LA,29.9508859,-90.0680892,3.5,81,0
8ZHMr31oBElXmaqSmZJs2Q,McDonald's,NJ,40.2174128225,-74.7435072848,1.5,9,0
JFUTJaE3REmCne1hnWm-OQ,Taste-D-Burger,MO,38.7048818,-90.3465971,3.5,12,4
ehcjV7rk61jO8ro-xW4EuQ,Carino's Italian Ristorante,FL,27.7558348,-82.7596909,4.0,133,0
QLUUaTj034zYVWiVl9tNvA,Café at The Square,LA,29.9492153,-90.0706026,4.0,293,0
idu9-lsH5FJ54xt9QdNezQ,Il Giardino,PA,40.1813198,-75.2272608,4.0,92,5
rSe2uJ54OG3ytfTBIzW8Nw,Chavelita's Cocina Mexicana,NV,39.5205888,-119.7863242,4.5,120,5
Y9cp0wO7SeDn-kpT0Lt-LA,Sarah's Bagel Cafe Idaho,ID,43.617047,-116.2035868,4.5,21,0
WusgaQ64KO8y2KAAHtTxWQ,Kings Gyro,TN,35.9170989419,-86.8344782003,4.5,69,0
Y8IzgicQSkxNsewSzR7NLg,Foodwerx,NJ,39.931255,-75.0511669,4.5,11,3
Gf1EboxqdJ9SPsVJur93Cw,QDOBA Mexican Eats,IN,39.7797445,-86.1728502,2.5,68,5
KJ8Wx5FGrQQMsEnqUlXiMA,Blue Bell Pizza,PA,40.1396559,-75.2453747,3.0,61,5
FI8fpqACdKnIkO-ur0FVfg,The NY Slice,IN,39.6336475,-86.1168714,3.5,16,2
rlBB-B-nAusvJYaPFlGcUw,Bagel Bin of Voorhees,NJ,39.8454961,-74.9413589,2.5,91,5
DlVUt17R8yfmJ3Zguw-f2Q,Philly Pretzel Factory,NJ,39.87288,-74.811207,3.0,9,2
1ol8rghO_5m0M5WFMv-C8Q,KFC,NV,39.5357831889,-119.7373932944,2.0,32,2
GBTPC53ZrG1ZBY3DT8Mbcw,Luke,LA,29.9507416316,-90.0704155423,4.0,4554,0
JszJI2Ewenggj8zh1o3B-Q,Peggs Restaurant On the Boulevard,MO,38.4643042509,-90.5275982246,3.0,57,2
0xy7fk_yHaHbapJ1FS_ZJA,The New Maple Hill Restaurant,NJ,39.956659,-74.991745,3.5,36,3
6USj3cqHAf2HkjBNomafRA,Bowl & Roll,TN,36.169304,-86.788028,4.0,38,1
B6zs6ywn7TfhOmmDtuWQkw,Farm a Sea Bistro & Crafthouse,DE,39.6624417,-75.6636292,3.0,28,2
WHFYn-b52ApOFymcKuGoFw,Steak-Out,IL,38.5410303,-90.0022302,4.0,20,4
FxBwl9Grthz-75q8xemfxQ,Taco Bus,FL,28.0850379,-82.5014795,1.5,5,3
UQssxfQY7LcLEtagk9ecog,Aroma Indian Bistro,NJ,39.9508686,-75.0486,4.5,100,3
Vnob_w_Aohf7ZDqxcJ9z2A,Mint Modern Vietnamese Bistro & Bar,LA,29.9349228653,-90.1095502387,4.0,403,3
HKbRmIZDRqeC6obLG0k_DQ,Jack in the Box,TN,36.1496176,-86.8584106,2.0,32,1
ugNplY4SZqIfP417oUxahQ,Chick-fil-A,NV,39.4773506,-119.7921455,4.0,256,0
zSEFzAbxnO44w8ACQ_XkAA,Akira Hibachi & Sushi Bar,FL,27.8521439085,-82.2678940657,4.0,74,2
262I6X8Vi5PXygFmhjeLyA,Sorrento Pizzeria And Grill,PA,39.9498507065,-75.2332982,2.0,9,0
Z1whpjCi-3RiuBPUtdK44A,Angys’s Cafe And Ice Cream Parlor,PA,40.1999487,-75.101936,4.5,22,5
ctu_fZxCRoQKRj4kUtOitg,China Moon,TN,36.0843377,-86.647476,3.0,19,3
Vq77GKtHp2nMsiKbjumgvA,Tony Express,PA,40.004478,-75.152804,5.0,8,0
LIoU5gBv75l1lMFaQ3wyfQ,Rozanna,MO,38.5956948927,-90.5221298022,4.5,59,2
iaW0dgrW_Y5-FSTV8axNOA,KFC,IN,39.7613281,-86.2236709,2.0,14,5
w18LqIckdMOK7-PU49KBsQ,Taco Bell,NV,39.5420749487,-119.7391727759,2.0,71,2
NIqLy5WxpHx1_rScNoROZw,Taqueria y Birrieria Aqui es Jalisco,IN,39.7802349528,-86.2502127886,4.5,25,5
zUJMvjK6aBeQtVCowZ85-w,Panasian Buffet,PA,40.0308845266,-75.1041150063,3.5,62,0
BWPokhrYnWdfxdaUaM6l9Q,Nashville Symphony,TN,36.1599355658,-86.7759658783,4.5,107,1
A0zZI5AnaeK4-vKoc9ABmg,Aroy Thai,IL,38.5738228,-89.9310173,3.5,157,3
IjJSHYMgXV3ZQSAr0tn19A,Sip of Saigon,NV,39.577618851,-119.7223937288,5.0,71,2
_TANOcxwIOmQhk1mnXaj7w,Wendy's,NV,39.4775312,-119.7651445,1.5,51,0
Dwwt8KwB0iyf86aE4p4vSQ,La Giraldilla,FL,27.9963789,-82.4721976,3.0,27,3
EyoGUM01HS9kemQcnTRLIw,Sofra Restaurant,AB,53.545705,-113.502599,4.5,75,0
5FDt7sy-70y4_37Dh2qcbw,El Arado Mexican Grill,IN,39.7523127,-86.140383,3.0,162,5
ATYVsHtyiQnknwFD1ZX4bQ,Dickey's Barbecue Pit,LA,29.9166412,-90.0501954,3.0,60,4
yWx7-4lHvyT0TpIO7pLA3Q,StarLite Sapphire,FL,27.7507274,-82.7428137,3.5,45,0
kvE2BJp9Rc8irEnbjnlNHA,Burger King,LA,30.0237812,-90.0617765,1.5,11,0
_AqS7hNIQra2bsZRgVs-kQ,Taco Bell,IN,39.905167,-86.059453,2.0,48,1
LH7kN8nAyF2JE5higfK4ZA,Taqueria El Sol,FL,27.7121935,-82.2979132,4.5,69,2
31s1x27DnN2V-ptUWEdfTQ,Subway,IN,39.9122513624,-86.2617752892,3.5,7,3
l4N93cZPMrtCSIBYT5Vk5A,China King,FL,28.237338,-82.6686826,3.0,20,4
HfOLOAYMKNUer3eXXTLHew,Vanos Pizza & Italian Restaurant,PA,39.9985455,-75.5667973,4.0,17,4
HrIbP2-jdRJAU92yqyDmyw,Genoa Pizza and Grill,PA,39.911312,-75.300349,4.0,24,2
9UZ9yZnllsV-SjukDl9n2g,Taqueria-El Ranchito,IN,39.7635833,-86.2206347,4.5,6,5
XQ_wVhRayMJGQT9J_WANkw,4 Seasons Grill Mexican Restaurant,PA,40.0030161,-75.1239721,4.0,12,0
uvAP4JuwHzZeZJ_aZyNLrg,Botto’s Italian Line Restaurant,NJ,39.7484398,-75.3099684,3.5,137,4
gUyfJlJRxu1fHuZ4dpBheQ,Santa Fe,LA,29.980908200000002,-90.085038,3.5,252,0
g04aAvgol7IW8buqSbT4xA,Cafe Fleur De Lis,LA,29.9544944572,-90.0665915385,4.0,1865,0
DvkSkF83xDONjkNIoEPRnQ,Greko Greek Street Food,TN,36.1744211,-86.7602763,4.0,267,1
IBl6b1zPNo36aqV4h7vQ_w,Dong's China Buffet,IN,39.606606,-86.376912,3.5,59,0
JtwyVOjFQvI2VZwZHta-dw,Bob Evans,PA,40.1330840253,-75.4502420086,2.5,51,1
2wSy-l44n1W2E-5R6QGRug,Taco Bell,NJ,40.055,-74.885,2.5,14,2
B3JF06ctShiYJeg1FyJ5jA,Remedy Cafe,AB,53.5228042,-113.5117214,3.5,127,0
liy3id4Wj1AaIduwETiVSQ,Sam's Pizza,PA,40.0310045,-75.0836118,2.0,13,0
YE3E3nFsPo0O7gpMpOL18A,T J Courtney's Restaurant and Catering,TN,36.2270382325,-86.514847411,3.5,112,5
ugSj0rWlWQ57-FuKuieGXA,Tampa Pizza Co - Westchase,FL,28.042926,-82.59231,4.0,81,3
6jNFUIKiCCKnLCpGJpkyrg,McDonald's,PA,40.0323183,-75.106562376,1.0,22,0
6FvC6w810uf6O7Ocd6Wpog,Yolklore,MO,38.5624086279,-90.3668923776,4.5,263,0
rZIoDcsE7vsneLXRzkXlfQ,Tim Hortons,AB,53.6420321719,-113.5763070271,2.0,6,2
VPZk3uYLXAc1pn3XDjWQVw,Arby's,IL,38.523756,-90.031249,2.5,7,4
pt0SLWdKuqrv7KRMgpOhLw,Starbucks,NJ,39.897906,-75.031543,3.5,38,3
9wa2FJBzEk8Gv0ahK2o_hA,Hilltop Cafe,FL,28.292461,-82.675004,4.0,20,4
sxuv5uZU15UHGT_HB1xYxQ,Islands Restaurant,CA,34.438119,-119.748456,3.5,197,4
3wogQmKw729tKKWaVbZvbg,World Famous N'awlins Cafe & Spice Emporium,LA,29.960059,-90.059223,2.5,295,0
95Pw5mF_PMbfvXN_K-mXWQ,Summit Cakery & Cafe,NJ,39.8125472,-75.1634761,3.5,39,1
BVndHaLihEYbr76Z0CMEGw,Mamas Kitchen,FL,27.884852,-82.5060044,4.5,162,3
Jubq4o59PS1Q3vyxBgrtQw,Rolling Stars,PA,39.954138,-75.616182,4.0,47,4
WSllV7Nl13wskOFWjh-BbA,Bountiful Farmers Market,AB,53.4720691,-113.4805395,4.5,16,4
uNgurpUi-9BRM6VLEnuNKA,Roger's Chicago Beef & Pizza,FL,28.3644485,-82.6934343,3.0,18,4
GEGTsaKaO1R9fFB4sGS5qw,Santa Barbara Food Connection,CA,34.4354208,-119.8203772,4.5,10,0
7rtrGGsUkVWZFHJaEArJ7g,The Trappe Tavern,PA,40.1983718,-75.4757542,3.0,109,1
_yK1bMl56fBuj2fG5lMiMQ,Machu Picchu Peruvian Restaurant,IN,39.8237744,-86.2538716,4.0,46,3
VRGYwKE_Z77frm5NwLvJhw,Burger Republic,TN,36.1524355,-86.7835814,4.0,721,1
c7h5S5Oqz3wq3KufxUlmtQ,Crepe Works,AB,53.52272,-113.619954,2.5,14,5
do1iQw_yAYGcaNn2RMBnSQ,China Wok,PA,39.8796236,-75.3227468,3.5,19,2
BvQ02tI-7gVAfQwHe_U3bA,Taco Bell,AZ,31.90552,-110.98834,3.5,18,3
aCjTyN2RLAao0jsYZkZfbA,Ritter's Frozen Custard,IN,39.8564753,-86.2421671,4.5,41,3
EjwrtCJDCZBUS_uTvpHMSw,Skeeter's Pub,NJ,39.8113901,-75.0676368,3.5,92,1
RTEdyP_6wGvXQugln1jxbg,Judge Bean's BBQ,TN,36.0334682,-86.786661,3.5,246,0
zwTmOj4B_OVPMTMYijQiKg,Queen Sheba,PA,39.9489954358,-75.2135489881,4.0,64,0
dYicZfoQApq5y0vO6FbLtw,La Campagnola,NJ,39.8167433979,-74.7612705307,4.0,98,5
pONoQvxG76bUJbMtCjiZJg,Peking Gourmet,PA,40.261326019,-75.6510311653,3.5,18,1
LkskzKzo_S8YmG1dGn4hag,Tijuana Flats,FL,28.043321,-82.592416,4.0,104,3
UhIdCsdiWS4K0EkbvVdlAw,Ed's Pizza House,PA,40.0474259,-75.1507643,1.5,24,0
B2wSy1zQCdZgDXOkhAKGDQ,Embassy Suites by Hilton Tampa Downtown Convention Center,FL,27.9423153,-82.4547605,2.5,209,3
Qi-A4ZgcEuSnq_8Fpfo_3Q,Our Lady of Guadalupe Mercado,CA,34.4230803,-119.6840083,4.5,8,2
-7Rx5jVeQmlVoAU_oXrzew,McDonald's,NJ,39.9147636602,-75.0127789378,1.0,11,3
KOAz86HXkNKNvEExrGXxlQ,Chick-fil-A,LA,29.9614416,-90.1836644,3.0,77,2
WwPPNhUpIsPhLumwravwKw,Millstone Cafe,PA,39.8701193,-75.5930734,3.5,5,4
Bih0eT_lbbCUwKmGYpX0hw,Ricci's Hoagies,PA,39.9353601,-75.1615836,4.0,67,0
hy5GpGXAna-5qrb3zNub6g,On The Border Mexican Grill & Cantina,NJ,39.9235950202,-74.9518829779,3.0,168,5
qGtEgy3ws-Arxr5_91YmSA,Hong Kong Express,MO,38.6100927,-90.2411453,3.0,23,5
-951Q5if-JmCQbO40meVPw,Sam's Pizza House,TN,36.2077886,-86.7840899,3.0,10,1
qot32tHVWZpiJibLTwQGyw,Pina's Pizza,PA,40.0694581,-75.2398454,3.5,47,0
SFafZpcCcjO28VzimGmKrQ,Pizza Hut,FL,28.217507,-82.695356,2.0,26,4
3LQsW2WJ1pmnRgH23C6YiA,Cabin Coffee,IN,39.7617852961,-86.4277279159,4.5,64,0
vOehPf4fht7cYjZ7I65fRQ,Tajin Mexican Grill,IN,39.815765,-86.2708932,3.5,8,3
seouwqRlM9YNNAkZS09FuQ,Jet's Pizza,IN,39.6297342096,-86.159157,3.0,37,2
RI33oswGDkIsc0fuQ8GzjA,Oregon Steaks,PA,39.91579,-75.1653879,3.5,184,0
C-anTsItNvJHHR__DiGEqQ,Nokey's Deli & Grill,LA,29.9647623,-90.0732441,4.0,54,0
1IIht_H_qWSTG-kMSvKS6A,Rock'n Dough Pizza & Brewery,TN,36.1606228,-86.8493654,4.0,17,1
yAsdDYPcIPUlISggX6oCYQ,Smashin Crab,TN,36.3301265674,-86.5901489267,4.0,72,2
yNlR9wTzd6Hg7It9fQrhdg,Buffalo Wild Wings,IN,39.9474028,-86.3445247,2.0,91,3
iM1hWCwxoqO-d_djiKpEXQ,Steak ’n Shake,TN,35.9669111,-86.4955681,1.5,38,3
RY1qY03QfETdrGWCEOugVw,Donnie Russell's Pic III Wings & Things,NJ,39.8680354,-74.8089819,3.5,34,2
MU8ekK-1u9IGVGAbHRdoMg,WANG'S TABLE,NV,39.513276,-119.8066165,4.5,15,5
9yi5Ls7ivwSXFz8BsDvW_A,Maxine's Chicken & Waffles - City Market,IN,39.7686835,-86.153515,4.0,7,5
eJYvM2Zy5BloOYGldWmAVw,Chateau Cafe,LA,30.0202243,-90.1114674,3.0,66,2
gqMRM12j5mder76t3bPxJw,Siam Cafe,TN,36.0999091,-86.7389853,4.0,141,1
JI3-QZwm6vihIFBcekgyaA,Matrix Hotel,AB,53.5393127726,-113.5046482086,4.0,55,0
1QtF1bFgzG3Jo0-L4kv0Cg,Subway,IN,39.7816290917,-86.1304205477,2.0,11,5
EFPLTyrqx_x_6GVaDU5Mtw,Firehouse Subs,FL,27.9367861,-82.3150592,2.5,35,2
qf4LecJDQWIt0gt6VJWFPw,Frontier Steakhouse,FL,28.0114286,-82.3605699,3.5,95,3
9Udgv_7h8oj6NXq5hQeJow,Old Beverly Cafe In & Out,AB,53.5705074,-113.4021041,4.0,9,3
EmbZ4QwVt_zgfqMOCATsyA,Let Them Eat Cake,FL,27.9083039,-82.5272462,3.5,37,3
DOydgEG9DzmM74QSz4btFA,Wendy's,IN,39.9564086,-86.0117188,1.5,51,1
Yh_KhyVD6ZBwsIQQ1wSUpw,Pho An Hoa Restaurant,FL,28.0250188,-82.4881568,4.0,160,3
7-cD0S7vJlUOuTpF2vQLOQ,Little Caesars Pizza,AZ,32.2510235,-110.9630046,1.5,11,2
rViAhfKLKmwbhTKROM9m0w,Casino Del Sol,AZ,32.1311278367,-111.0866194535,3.0,298,0
Wy8Hswf2cLQGRZN6armkag,Jack in the Box,CA,34.4298966,-119.8687832057,1.5,86,0
lTkkSkvVhJIbHqVJKv6w9w,Classic Asia,NJ,39.882151,-75.059349,4.5,53,3
fSx8zLSP_LBtIm_mfQRbTQ,Dragon House Chinese Eatery,IN,39.958505,-86.0424579,3.0,117,1
LKQF2hoMmygTha9UMp07pg,Half-Way Market,TN,35.911764699,-86.8892750734,4.5,10,0
wO0NI7NkDdbT46h-TI2BtA,Tailgate Brewery - East Nashville,TN,36.1862404613,-86.7470884886,4.5,103,1
V7TaLZ5EB94hqRIZ1_xjGQ,Kawa Japanese Cuisine,PA,39.9439214896,-75.3488279928,4.5,145,2
HFuAKE0uZ-frIMjroeA-cA,SET NoLibs,PA,39.9671493,-75.1404232,4.0,108,0
digvt_7fV-AZFwt2Fp9Z-Q,Schnucks - Loughborough,MO,38.5578594,-90.2614073,3.0,25,5
g79jYJz3FEvgvglXqOUWxw,IHOP,LA,29.99649,-90.15929,3.0,75,2
Mbkt43sUBsvXRxmrJrZFhQ,Circle 7 Ranch,MO,38.6013121,-90.4295245,4.0,236,2
E-DcL1u330qwvoxXhipmUQ,George's Sandwich Shop,PA,39.9388315986,-75.1579846257,4.0,93,0
gkNFqSreKexZxC0BTqS4uw,A&W Restaurant,MO,38.777874,-90.3344,2.0,10,4
guxzC4GOY1MYY5KqfItwOQ,P J Whelihan's Pub & Restaurant - Oaks,PA,40.12923734,-75.45309663,3.0,146,1
VxVQSJKTCx-5WFe-clKOaw,232 Corner Cafe,PA,40.2175122618,-75.0099894621,4.5,28,3
VX7GkJDnhPG8NmrdO1V-6Q,First Watch,FL,27.785663,-82.638323,4.0,82,0
SkWaAf50KiN2m0zXfnAuiA,Luigi's Cafe,DE,39.7939487,-75.7093531,4.5,63,0
2PlhAoV-zXw2SUaWzkw-Ng,Friendly's - Pottstown,PA,40.2548246,-75.6597658,2.0,37,1
GwdjIvdOUUZav6eKrAL0ZQ,ZincBar,PA,40.2450742,-75.3422085,3.0,11,5
YSmh3UwoCPzoLytbYKYBLw,Barbecue King City,AB,53.550455,-113.489228,4.5,6,0
rH0FgPdxWWhH4YFz4mempg,McDonald's,MO,38.586257,-90.276034,1.5,39,5
UYOZc-cC932HirQyMmqhfA,Hardee's,MO,38.7141917757,-90.4359318789,2.0,10,3
-Tnsc_b8dsWuAq1wQugKZA,Mi Tenampa,IN,39.8722939,-85.955155,4.0,67,4
YEJh9kUueYsB_OSY11HXUA,The Spaniard,FL,27.9456158,-82.5327449,4.0,31,3
otQS34_MymijPTdNBoBdCw,BK Tacos,AZ,32.2558336,-110.9605596,4.0,492,2
eFvzHawVJofxSnD7TgbZtg,Good Karma Cafe,PA,39.9446092,-75.1578331,4.0,249,0
oCtDz1M-m-iYH1cG2o4mtA,Foodie Call,LA,30.0103282,-90.1025426,4.0,23,2
9XyO6Vk13vUXgJ2yM39P3A,Turchettis Delicatessen,IN,39.752572,-86.1394762,4.5,115,5
E-4t5Hoon6aVFTWDPz26fQ,Biscuits Cafe,IN,39.8687947,-86.1407129,4.0,308,1
teGUSCn6Vlrs07qIgilFHA,Oriental Kitchen,PA,39.971725,-75.1657105,2.5,8,0
WXxZigTHz0ap8JXVCEEepA,Captain D's,MO,38.6262167146,-90.2363026142,2.5,22,5
wWLic8cT6apGZWK8wWWSQQ,Hearth Kitchen,PA,39.8635846676,-75.6835765727,3.5,97,4
KSTWGtRlYowMIuFspfvAFg,Pizza Hut,LA,29.9995993472,-90.0622879132,2.0,17,0
IDITmPV4olLuRHdnQ9m9BQ,Katsumi's Teaching Kitchen,IN,39.7219581367,-86.0846889832,5.0,21,2
gK9CdFaCXmHoW8aLfXiSqg,Tired Hands Fermentaria,PA,40.0066759391,-75.2903721129,4.0,459,2
NOPk3f5TedR-fw9HO4VJlQ,Athenian Restaurant,PA,40.0259565956,-75.0442917475,4.0,27,0
aAdGIK9ewmiWtGzIcrQgNA,Gran Agave,FL,27.8944444366,-82.3180296645,3.5,214,2
OEzYP44ER97a1hi4LgR6bA,QDOBA Mexican Eats,PA,39.9145256557,-75.3438321455,3.5,44,2
1ZRGRUd3y5a8vrgUyzMcnQ,Jaco Juice and Taco,PA,39.9603702,-75.605488,4.0,130,4
jQBPO3rYkNwIaOdQS5ktgQ,The Fountain On Locust,MO,38.636198412,-90.2230380318,4.5,1010,5
h8iDZcXLDicI_Wg8fwl-ig,Ybor City Food Tours,FL,27.960471175,-82.441660943,4.5,15,3
YHlZCtNLplWoXK_eoOs9-g,Florida Avenue Brewing Co.,FL,28.1862569,-82.3674802,4.0,136,1
Jc6MxMyCLp4DMfN4C1t1aQ,Pepo's Cuban Cafe,FL,27.863139,-82.6384169,4.0,135,0
HMQ1HMB6r__ol7tSaiNvfg,Yolk - Monument Circle,IN,39.769678,-86.156556,3.5,104,5
_Qq76wygutgcUER6QN1Ffw,Hugh-Baby's,TN,36.178233,-86.75215783,4.0,18,1
AOlB9GRr5v89k_Gof3b_DA,Hobnobber Cafe,LA,29.983473,-90.199623,4.5,30,1
xs5gxwXz1QFlWy62XAH-9Q,Newk's Eatery,TN,35.9472374,-86.8228578,3.5,99,0
D392vqhMjDPkHw1U8p66Uw,Maryland Avenue Sub Shop,DE,39.7380955,-75.565708,4.0,15,1
VD4mZEBNiCeyGSq51XV9jw,3 Wood Pizza & Pub,ID,43.545104,-116.312763,4.5,47,5
2Z8LWDUbrUbe-o3KZE2r7Q,Dagu Rice Noodle,AB,53.5412147,-113.4995711,4.5,10,0
hYXUmvr48ucxDtxk2K6k7Q,Wing Spot,NJ,40.233549,-74.715984,3.0,30,0
c6r29yLfVhZaSyrtsNVLRQ,The Palace of Indian,PA,39.9299499,-75.1629175,4.0,88,0
fBO0Cb-tbx5fvaWsp4sKtw,Affton Diner,MO,38.5504597196,-90.3339651113,3.5,83,1
fASBQ_HrzOWcO0ponVZdgA,Giuseppe's Pizzeria,NJ,39.8445408,-75.1255772,3.5,13,1
I6L0Zxi5Ww0zEWSAVgngeQ,Cafe Beignet on Bourbon Street,LA,29.955845,-90.0684361,3.5,1066,0
sGLDJ4V4ezZZemFHCa0z_g,Cantina Los Tres Hombres,NV,39.5310198,-119.7227454,3.0,94,2
mNu6xYO2bn-rvacN12h9WA,In & Out Pizza,PA,40.0700275,-75.1575821,2.0,36,0
lwdkX7KcibM4mDqpDfK7JA,Kalamatas - Green Hills,TN,36.108847,-86.8114334,3.5,153,1
uz0Af3aczwENPY48UUEY0Q,Valente’s Cucina,NJ,39.897279,-75.031978,5.0,45,3
SIoCIxjn4jLt2O-4DajWJw,Mac's Tavern,PA,39.949794,-75.144739,3.5,446,0
BTtQdwXZT8c5QvKrz3QI5Q,Taco Bell,MO,38.772982999999996,-90.306177,2.0,9,4
tw7SFbDQ2gurVAzkaS2Vmw,Domino's Pizza,IN,39.84323,-86.397102,4.0,14,0
8F6OsZYrl3LbR17teMJWJQ,Sonic Drive-In,TN,36.1455565,-86.872195,3.0,20,1
v3cbEy9tUWqeVVHQM5ZZ4A,Harvinskins Seafood Market & Cafe,NJ,39.9478269011,-75.0742394732,4.5,46,3
9Pvwx_IfQgQL4ykmlGV6yA,P.F. Chang's,PA,40.1163224545,-75.2837920189,3.0,243,5
CKKY7kxtznKVzm9FBzAL4w,Little Caesars Pizza,DE,39.8252423566,-75.4990676847,2.0,14,3
PjWv-WZKYtkKbqOG0y83ZQ,Thien An Restaurant,AB,53.5414485,-113.4403158,4.0,25,3
vC2qm1y3Au5czBtbhc-DNw,Sushi Teri,CA,34.3985268,-119.5184755,3.0,167,3
kKPJLiHIr9Gd9sYs3GhxDQ,Brick & Mortar,FL,27.7713489,-82.6410526,4.5,421,0
jIDoMS9MNuyDFVC1P3ZblA,Mr. & Mrs. Crab,FL,27.789998,-82.732881,4.0,41,0
h32-Sc0Nd4UzpGzA2bUVmA,Clean Juice Upper Dublin,PA,40.1585472,-75.1478267,4.5,13,5
AjzEFdI4hheVodEJZLLJzA,Asados Al Carbon,FL,28.0150284,-82.4857457,3.0,26,3
z680Aylt8wN2KAeFM1hy-A,Chatham Tap Mass. Ave.,IN,39.7766084,-86.1463714,4.0,427,5
xsYbbmEfbeob2y1qcsojtw,King of Pizza,NJ,39.7974594,-74.9328195,3.0,53,5
-bkbeuXaYdfM2APQCalgmQ,Fox’s Pizza Den,IN,39.947406,-86.3442231,3.0,40,3
nJ4RKwRgkGiD4fE0QAg5mg,Saloon 151,PA,39.959524812,-75.6076141074,3.0,117,4
hZfGntDJ6SvXhcWLfkCFSg,Pizza Box Thorndale,PA,39.998113,-75.732596,4.0,18,4
Gw6dXkEHFRCisEsigmeJtg,Tompkins Riverside,MO,38.7777223,-90.482883,4.0,124,3
9kNwVP9V3e5NVbTSNsUN4w,Miguel's Latin Market,FL,28.4636494,-82.540694,4.0,12,4
OZ0t8PySiJGxpyGWPOpL6A,Don & Bert's Custard Stand,NJ,39.8269311,-75.2541271,4.0,24,1
5YsyW95SpCiLhpYYuZ3GBQ,Burgerrito,AZ,32.2107257,-110.8850949,3.5,34,1
i_5PaxI8DK9EErsHBdwP1A,Tiffin-Etc,PA,39.9701516,-75.1488281,3.0,21,0
uamAUnL4ox5uXvjquY9wLg,Applebee's Grill + Bar,NJ,39.678551,-75.495753,2.5,32,4
IkLp51a_x_0CPlg0qMEqNg,PennePazze,TN,36.1527701,-86.8328937,4.5,152,1
-AhpS4MUSdYWg8SwZpV6eA,Tokyo Express,AB,53.4550264,-113.4229759,2.5,9,4
TTS3CWZ2QAHD6uvghI4BvQ,Le Soleil Restaurant & Bakery,NJ,40.2316477,-74.7232088,3.5,12,0
9ouyziwYpSvJzlLFpukSgA,Chipotle Mexican Grill,FL,27.8388019441,-82.6846666245,3.0,88,0
R6YhZypd362pEJvl1jN0EA,House of Blues Restaurant & Bar,LA,29.9533917957,-90.0662829,4.0,165,0
LQcGL4hfJAeK6bk2ZdhmXw,Aqui Con El Nene,AZ,32.28682634,-110.9950735,4.5,322,2
ymy2ykGH2kjcPIitZQkkUg,Kurry Xpress,FL,27.941878835,-82.3376758397,4.0,46,2
lmmPwUAK2F2sV3Tvx0pDHQ,Papa John's Pizza,FL,28.08085,-82.577963,3.5,8,3
peL7F35gY6nXuXDD-08LAA,Asian Kitchen,FL,28.0512845,-82.7362063,4.0,51,5
Bu5sh0AVuv5qTpH7pm7wuA,Katie's Meat and Three,TN,36.1643251362,-86.7796141528,4.0,8,1
ivqoS7vO__2-rerN_IjZmA,Irie Foods,AB,53.4591,-113.44753,4.0,21,4
0bzkJPZaxJI0aWh20ayBJQ,Subway,IL,38.4616615265,-90.0929554558,1.5,6,2
cpsKyZKCLpTMmu0YQsbIsg,Wendy's,PA,39.9562148,-75.2582743,2.0,24,2
DD3TxygdxBxKh9gbjCuLDA,Events By Rincon,CA,34.4064015,-119.5478011,4.5,109,3
pj8Y-5vfbRitnnm2xJFH9w,Jamaican Jerk Hut,PA,39.944275,-75.166787,2.5,276,0
Jx2AoB_IQOUrZ3s6fdAUSA,Sips Specialty Coffee House,FL,28.0632446,-82.5503918,4.5,219,3
g6kAgbQQSQ8i1A_Za-znJQ,Little Caesars Pizza,NV,39.5403766,-119.7323674,2.0,44,2
H3bwwCHekjRPiE1n8CvV6g,Mac T Donair & Shawarma,AB,53.4533087697,-113.5678353533,3.5,11,5
xYOETY4C57qgs0ldtDYX_Q,Moon Flower House,PA,40.0295791831,-75.0583349168,4.5,8,0
YwxnKaMrUVtBygE8kagsVw,Jimmy John's,IN,39.8005401,-86.1570927,2.5,21,5
XpTNCVbO5wL1DtDyKzKqfA,Holmesburg Bakery,PA,40.0410115,-75.0284172,4.0,79,3
8ce7iGA20g8PwN9WJhk5CQ,Tony Roni's,NJ,39.8817919,-75.0865515,3.5,16,3
mpVN_c2VeliyNcljZFgUSg,Aldo's Ristorante Italiano,PA,40.2059745,-74.95347,4.0,74,3
Q4OTSH9DaoeqtYcg6qYtZg,Subway,DE,39.7225838297,-75.6624078155,1.0,5,2
WM5oG8uHlAnjcSvl-HArrQ,Little Road Farm Stand,FL,28.2093537,-82.6662655,4.0,5,4
t3uOJKilXAzO7vC2B83RZg,Abruzzi Pizza,PA,39.872541,-75.3871996,3.0,55,2
-lhHSR1Aws4CyYC1XOPVTw,Louis Pappas Fresh Greek,FL,27.9200036,-82.4994284,4.0,156,3
qxDVtIq0EtvOtVKDwbYOiQ,Tony Roma's,AB,53.4882474,-113.4956328,2.5,26,4
R07rb3FN2QoRIbB6r6HDxQ,Tastee Restaurant,LA,30.0115110652,-90.2661487145,4.5,141,1
p7C2l6MyJLq9lKMmUhjqMg,Papa John's Pizza,FL,28.0615217,-82.707124,3.0,18,5
kQRB8RNwd7cEMcURTS-I7A,Sabrina's Café,NJ,39.9159547157,-75.0684280694,4.0,570,3
SCBYAipfLtclqn5psCyIpQ,Applebee's Grill + Bar,FL,28.496026,-82.596027,2.5,38,4
d-VtgcAxArPxVYQUSyF6vw,Green Herb Thai Cuisine,PA,39.9504263,-75.3122235,4.0,39,2
PnU06WLiaqDeaNSSRDH1cg,Wendy's,AB,53.51163758,-113.3195885271,2.0,8,1
iCKF72z3fqRTF1vxdBZINQ,Village Pub & Beer Garden,TN,36.2043436,-86.7247994,4.0,260,1
at5w9OCM1ex1Y4mWCQB2Bw,Jimmy John's,IL,38.7196001,-90.1223392,2.5,9,0
v9D3inGP2LaibM0VMufaXg,Coco Thai Bistro,PA,40.0057545,-75.2607604,4.0,142,2
r7WwdseoJpfna4a57qeiag,Chipotle Mexican Grill,IN,39.972526,-86.1545574432,3.0,50,1
uYCSHmhjghnhv8iEvRT44Q,Roma Pizza,NJ,39.6430619785,-75.5190893712,2.5,5,4
LqF5QiIm89Ea9wtc0cdPCA,Dugout Bar,IN,39.7582445,-86.1464579,4.0,128,5
5ewePyN_mEE_79OmYyYBEA,McDonald's,AZ,31.9573971,-110.9817025,1.5,83,3
n88rreifvghMYJVUaWMUXg,Papa John's Pizza,PA,40.2556464,-75.6616293,2.0,12,1
cXEx8dhmoFZcsJjXS2lLuQ,The Pasta House,MO,38.555204,-90.313131,3.5,51,0
mJJTx-x896dLV2gSMwQ35g,Mack's Chicken,MO,38.7488365173,-90.2544937134,3.0,22,4
XdcWCEhxUtBcSyn-DiidPw,Domino's Pizza,TN,36.149509,-86.8595764,2.0,37,1
BDYL4lMlT6fpKgiNlJRclA,Red Lobster,IL,38.600549,-89.992023,3.0,79,4
WfZ7KkYL1eIO3ZrNeASYJw,Verchio's Produce Outlet,NJ,39.7241447,-75.0495698,3.5,32,1
DrRnV4gN7tkdrgBmG6Y7OA,El Salvadoreno Pupuseria Restaurant,NJ,39.8127092,-74.986529,3.5,29,5
jlNNg4l7a1QwJCGvNeUIyQ,Marco's Pizza,FL,28.19017,-82.62636,2.5,17,4
KBvdN8Apn4DIxuNW3IESRw,NJ Weedman's Joint,NJ,40.2208764427,-74.7588232612,4.0,42,0
P_x9fEz8efemqOIV46S0tg,Red Mesa Restaurant,FL,27.8168717,-82.6389697,4.0,585,0
3m72qrDirMZDOhaG3FR6HQ,Pancheros Mexican Grill,NJ,39.848349,-74.976908,3.5,97,5
iJOwwuhHP_0BCHmpmJ8l4Q,McDonald's,PA,39.9307946183,-75.2276433154,2.0,15,0
WDXC3W5lDt2pK2qvw6ds3Q,Tortugas Mexican Eatery,PA,40.180349,-75.454371,3.0,106,1
8G4mt9y5mRg161XBs-hePw,Izakaya Ren,MO,38.5684398,-90.4749003,4.0,121,2
B2TRCYPklp7a8Ipcz5y-BA,Halal Gyro King,PA,39.95187,-75.159913,4.5,24,0
-v0JE4wW_4Xs6C3WT2XgDA,Burger King,AZ,32.251002044,-110.909460783,1.5,21,2
IwqFmo-RJs15WvA8PVHFnA,Madre - Boutique Taqueria,ID,43.6079160867,-116.2129873037,4.5,141,0
P0yKtQ4cFjNTY1X2CIdzBw,Grand Hyatt Tampa Bay,FL,27.9651702134,-82.5500947185,4.0,246,3
b3bTU1phXWm6WYV8NpWnnA,Pete's Pizza & Italian Grill,NJ,39.8801247,-75.0936229,3.5,11,3
cBp1fn2LXpSHe4VbTXLYEw,Bab Café - Reno,NV,39.5281099,-119.8169346,4.5,470,5
wqj6JquckEOs1h7rs376kQ,Pho King,AB,53.570101,-113.481466,4.0,58,0
3PlpoDgeAQAreL8FM2LelA,Kauboi Izakaya,NV,39.5118968857,-119.806008659,4.0,312,5
xEUNh93IPUHE5gdcsu2mtA,KingCal Kitchen Meal Prep,IN,39.9602918,-86.1261874,5.0,6,1
dHOxmu8B_FGEcVa7q0zrTg,Taco Bell,MO,38.778439,-90.488099,1.5,25,3
cp3pRJJuQo0urJZm2inr_A,Veekoo,PA,40.1966292847,-75.5329163118,4.0,160,1
0wTai9TZOXmZ7qrhp2e8XA,Makoto Japanese Steakhouse,TN,36.4126347524,-86.7914654749,4.0,27,4
